[
  {
    "Name": "STOMATOLOŠKA ORDINACIJA DR MARKOVIĆ",
    "Fulladdress": "Jovana Dučića 1, Brčko 76000",
    "Municipality": "Brčko 76000",
    "Categories": "Stomatološka klinika",
    "Phones": "049 218-360, +387 49 218-360",
    "Average Rating": "5",
    "Latitude": "44.8756516",
    "Longitude": "18.8129651",
    "Website": "http://www.drmarkovic.com/"
  },
  {
    "Name": "Stomatološka Ordinacija Babić",
    "Fulladdress": "Svetog Save 53, Brčko 76100",
    "Municipality": "Brčko 76100",
    "Categories": "Stomatološka klinika",
    "Phones": "049 212-250, +387 49 212-250",
    "Average Rating": "4.8",
    "Latitude": "44.8740837",
    "Longitude": "18.8151088",
    "Website": ""
  },
  {
    "Name": "Stomatološka ordinacija A-Dent Brčko",
    "Fulladdress": "Branislava Nušića 10, Brčko",
    "Municipality": "Brčko",
    "Categories": "Zubar,Kozmetički stomatolog,Stomatološka klinika,Oralni kirurg,Ortodont,Parodontolog,Stomatolog protetičar",
    "Phones": "065 622-400, +387 65 622-400",
    "Average Rating": "4.7",
    "Latitude": "44.8752358",
    "Longitude": "18.811447299999998",
    "Website": "https://a-adent.com/"
  },
  {
    "Name": "Ordinacija Eliksir Brčko",
    "Fulladdress": "Branislava Nušića br.18, prvi sprat 76100, Brčko 76100",
    "Municipality": "prvi sprat 76100",
    "Categories": "Liječnik",
    "Phones": "065 573-876, +387 65 573-876",
    "Average Rating": "5",
    "Latitude": "44.8747937",
    "Longitude": "18.811991",
    "Website": "https://eliksirbrcko.com/"
  },
  {
    "Name": "Poliklinika Dr. Kamenjašević",
    "Fulladdress": "Svetozara Ćorovića, Brčko",
    "Municipality": "Brčko",
    "Categories": "Medicinska klinika",
    "Phones": "062 833 833, +387 62 833 833",
    "Average Rating": "4.3",
    "Latitude": "44.8773388",
    "Longitude": "18.805685099999998",
    "Website": "https://www.facebook.com/PoliklinikaDrKamenjasevic/#!/PoliklinikaDrKamenjasevic/"
  },
  {
    "Name": "Stomatoloska ordinacija Radix",
    "Fulladdress": "Branislava Nušića 28, Brčko",
    "Municipality": "Brčko",
    "Categories": "Zubar",
    "Phones": "065 226-565, +387 65 226-565",
    "Average Rating": "5",
    "Latitude": "44.8744592",
    "Longitude": "18.8121054",
    "Website": ""
  },
  {
    "Name": "Stomatološka ordinacija Lugonjić",
    "Fulladdress": "Cvijete Zuzorić 20, Brčko",
    "Municipality": "Brčko",
    "Categories": "Stomatološka klinika",
    "Phones": "049 215-440, +387 49 215-440",
    "Average Rating": "4.8",
    "Latitude": "44.875704999999996",
    "Longitude": "18.813915899999998",
    "Website": ""
  },
  {
    "Name": "Poliklinika Dr PAJIĆ MEDICAL",
    "Fulladdress": "Bulevar mira 34, Brčko 76000",
    "Municipality": "Brčko 76000",
    "Categories": "Liječnik",
    "Phones": "049 490-281, +387 49 490-281",
    "Average Rating": "3.1",
    "Latitude": "44.874489399999995",
    "Longitude": "18.8136826",
    "Website": "http://drpajicmedical.com/"
  },
  {
    "Name": "Stomatoloska ordinacija Arsenovic",
    "Fulladdress": "Njegoševa 19, Brčko 76100",
    "Municipality": "Brčko 76100",
    "Categories": "Zubar",
    "Phones": "065 442-908, +387 65 442-908",
    "Average Rating": "5",
    "Latitude": "44.8677718",
    "Longitude": "18.8132224",
    "Website": ""
  },
  {
    "Name": "Stomatološka ordinacija \"\"M DENTALIS\"\"",
    "Fulladdress": "Ilićka 10 24, Brčko 76100",
    "Municipality": "Brčko 76100",
    "Categories": "Zubar",
    "Phones": "065 902-135, +387 65 902-135",
    "Average Rating": "5",
    "Latitude": "44.8605582",
    "Longitude": "18.8184069",
    "Website": "http://mdentalis.com/"
  },
  {
    "Name": "Specijalistička liječnička ordinacija dr Beres",
    "Fulladdress": "Prof, Murata Sinanagića 1, Brčko 76100",
    "Municipality": "Murata Sinanagića 1",
    "Categories": "Liječnik",
    "Phones": "065 710-136, +387 65 710-136",
    "Average Rating": "5",
    "Latitude": "44.8736874",
    "Longitude": "18.8092687",
    "Website": ""
  },
  {
    "Name": "Dr. Tabaković",
    "Fulladdress": "Augusta Šenoe 13, Brčko",
    "Municipality": "Brčko",
    "Categories": "Zubar",
    "Phones": "049 215-450, +387 49 215-450",
    "Average Rating": "4.8",
    "Latitude": "44.873284399999996",
    "Longitude": "18.8066048",
    "Website": ""
  },
  {
    "Name": "OrtoDent specijalisticka stomatoloska ordinacija",
    "Fulladdress": "Hasana Aganovica Taca 27, Brčko 76100",
    "Municipality": "Brčko 76100",
    "Categories": "Zubar",
    "Phones": "064 1250097, +381 64 1250097",
    "Average Rating": "4.7",
    "Latitude": "44.8762038",
    "Longitude": "18.7995923",
    "Website": "https://ortodoncija.co.rs/o-nama/"
  },
  {
    "Name": "Stomatološka ordinacija DOBRAČA",
    "Fulladdress": "Islahijet 15, Brčko 76120",
    "Municipality": "Brčko 76120",
    "Categories": "Stomatološka klinika",
    "Phones": "061 720 892, +387 61 720 892",
    "Average Rating": "3",
    "Latitude": "44.8803799",
    "Longitude": "18.8053751",
    "Website": ""
  },
  {
    "Name": "Stomatološka ordinacija Dr. KUSTURICA",
    "Fulladdress": "VQ6F+JRJ, Brod",
    "Municipality": "Brod",
    "Categories": "Zubar",
    "Phones": "049 504-267, +387 49 504-267",
    "Average Rating": "4.4",
    "Latitude": "44.8615873",
    "Longitude": "18.7745073",
    "Website": "http://doktorkusturica.com/"
  },
  {
    "Name": "Poliklinika dr. Nišić",
    "Fulladdress": "Asima Derviševića 2, Brčko",
    "Municipality": "Brčko",
    "Categories": "Kardiolog",
    "Phones": "049 220-006, +387 49 220-006",
    "Average Rating": "4.6",
    "Latitude": "44.8765272",
    "Longitude": "18.8014895",
    "Website": ""
  },
  {
    "Name": "Stomatološki centar Dr BRANISLAV",
    "Fulladdress": "Miroslava Krleže 29, Brčko 76100",
    "Municipality": "Brčko 76100",
    "Categories": "Liječnik",
    "Phones": "065 614-540, +387 65 614-540",
    "Average Rating": "5",
    "Latitude": "44.868909599999995",
    "Longitude": "18.8106237",
    "Website": "http://www.drbranislav.com/"
  },
  {
    "Name": "DR ANITA DENTAL CENTAR",
    "Fulladdress": "Uzunovića 3, Brčko 76100",
    "Municipality": "Brčko 76100",
    "Categories": "Stomatološka klinika",
    "Phones": "065 331-726, +387 65 331-726",
    "Average Rating": "5",
    "Latitude": "44.873264899999995",
    "Longitude": "18.815550599999998",
    "Website": "http://www.dranita.ba/"
  },
  {
    "Name": "PZU-SC \"\"PRO VITA Medica\"\" Brčko",
    "Fulladdress": "Branislava Nušića 19, Brčko 76100",
    "Municipality": "Brčko 76100",
    "Categories": "Medicinska klinika,Liječnik",
    "Phones": "049 217-161, +387 49 217-161",
    "Average Rating": "3.3",
    "Latitude": "44.873996",
    "Longitude": "18.812846",
    "Website": "https://www.facebook.com/provitamedicabrcko"
  },
  {
    "Name": "Stomatološka ordinacija \"\"Dr Stevanović\"\"",
    "Fulladdress": "Uzunovića 29, Brčko",
    "Municipality": "Brčko",
    "Categories": "Zubar",
    "Phones": "049 211-382, +387 49 211-382",
    "Average Rating": "5",
    "Latitude": "44.8714991",
    "Longitude": "18.816914",
    "Website": ""
  },
  {
    "Name": "Laboratorija BioMedica Brčko",
    "Fulladdress": "Reisa Džemaludina Čauševića 49, Brčko",
    "Municipality": "Brčko",
    "Categories": "Medicinski laboratorij",
    "Phones": "049 961-109, +387 49 961-109",
    "Average Rating": "4.6",
    "Latitude": "44.8780728",
    "Longitude": "18.8007798",
    "Website": "http://www.biomedicalaboratorija.ba/"
  },
  {
    "Name": "Aqualab Plus 2 Laboratorija",
    "Fulladdress": "Reisa Dž. Čauševića 51b, Brčko",
    "Municipality": "Brčko",
    "Categories": "Biokemijski laboratorij",
    "Phones": "065 043-043, +387 65 043-043",
    "Average Rating": "4.6",
    "Latitude": "44.8777191",
    "Longitude": "18.8003897",
    "Website": "http://www.aqualab.ba/"
  },
  {
    "Name": "Laboratorija BioMedica Brčko-Grčica",
    "Fulladdress": "Petra Kočića 1, Brčko 76100",
    "Municipality": "Brčko 76100",
    "Categories": "Medicinski laboratorij",
    "Phones": "049 206-129, +387 49 206-129",
    "Average Rating": "4.2",
    "Latitude": "44.8625256",
    "Longitude": "18.810689999999997",
    "Website": "http://biomedicalaboratorija.ba/"
  },
  {
    "Name": "Mikrobiološka Labaratorija",
    "Fulladdress": "VRG2+R38, Dr. Sakiba Edhemovića, Brčko",
    "Municipality": "Dr. Sakiba Edhemovića",
    "Categories": "Odsjek za javno zdravstvo",
    "Phones": "",
    "Average Rating": "5",
    "Latitude": "44.8770445",
    "Longitude": "18.8002078",
    "Website": ""
  },
  {
    "Name": "Poliklinika Dr PAJIĆ MEDICAL",
    "Fulladdress": "Bulevar mira 34, Brčko 76000",
    "Municipality": "Brčko 76000",
    "Categories": "Liječnik",
    "Phones": "049 490-281, +387 49 490-281",
    "Average Rating": "3.1",
    "Latitude": "44.874489399999995",
    "Longitude": "18.8136826",
    "Website": "http://drpajicmedical.com/"
  },
  {
    "Name": "Grbić Dental Laboratory",
    "Fulladdress": "Sabita Aladina Užičanina 19, Brčko 76100",
    "Municipality": "Brčko 76100",
    "Categories": "Zubni laboratorij",
    "Phones": "066 801-488, +387 66 801-488",
    "Average Rating": "5",
    "Latitude": "44.877482199999996",
    "Longitude": "18.7806924",
    "Website": "https://www.facebook.com/GrbicDental/"
  },
  {
    "Name": "Alfa",
    "Fulladdress": "VRC8+QP7, Uzunovića, Brčko 76100",
    "Municipality": "Uzunovića",
    "Categories": "Liječnik",
    "Phones": "049 216-667, +387 49 216-667",
    "Average Rating": "4.7",
    "Latitude": "44.8719234",
    "Longitude": "18.8167883",
    "Website": "https://alfamagnet.ba/"
  },
  {
    "Name": "Ordinacija opšte stomatologije \"\"Demirović\"\" Banovići",
    "Fulladdress": "CG4G+JJQ, Alije Izetbegovića, Banovići",
    "Municipality": "Alije Izetbegovića",
    "Categories": "Stomatološka klinika",
    "Phones": "061 667 597, +387 61 667 597",
    "Average Rating": "5",
    "Latitude": "44.4065819",
    "Longitude": "18.5266024",
    "Website": ""
  },
  {
    "Name": "Dr Ermina Mujić",
    "Fulladdress": "Husinske bune 9, Banovići",
    "Municipality": "Banovići",
    "Categories": "Ginekolog",
    "Phones": "061 738 000, +387 61 738 000",
    "Average Rating": "4.7",
    "Latitude": "44.4074085",
    "Longitude": "18.5274848",
    "Website": "http://mujicermina.wixsite.com/dr-ermina-mujic"
  },
  {
    "Name": "Stomatološka Ordinacija \"\"Dr.Emina Golić\"\"",
    "Fulladdress": "Alije Izetbegovića bb, Lamela B1, Banovići 75290",
    "Municipality": "Lamela B1",
    "Categories": "Zubar",
    "Phones": "061 294 453, +387 61 294 453",
    "Average Rating": "5",
    "Latitude": "44.4072877",
    "Longitude": "18.5279481",
    "Website": ""
  },
  {
    "Name": "Dr. Brigić Pedijatar",
    "Fulladdress": "CG3C+2F7, Banovići",
    "Municipality": "Banovići",
    "Categories": "Pedijatar",
    "Phones": "061 193 361, +387 61 193 361",
    "Average Rating": "4.4",
    "Latitude": "44.4025399",
    "Longitude": "18.5211733",
    "Website": ""
  },
  {
    "Name": "Stomatološka ordinacija “Dr Tepić”",
    "Fulladdress": "Božićka Banovića 18, Banovići",
    "Municipality": "Banovići",
    "Categories": "Stomatološka klinika",
    "Phones": "061 631 411, +387 61 631 411",
    "Average Rating": "",
    "Latitude": "44.4053121",
    "Longitude": "18.5232184",
    "Website": ""
  },
  {
    "Name": "Dr Alen Kabiljagić",
    "Fulladdress": "Maršala Tita 17, Bosanska Krupa 77240",
    "Municipality": "Bosanska Krupa 77240",
    "Categories": "Stomatološka klinika",
    "Phones": "061 776 362, +387 61 776 362",
    "Average Rating": "4.9",
    "Latitude": "44.8832126",
    "Longitude": "16.1569496",
    "Website": "https://www.facebook.com/DrKabiljagic"
  },
  {
    "Name": "Stomatoloska ordinacija Dr. Izet Muzaferovic",
    "Fulladdress": "Branilaca grada bb, Bosanska Krupa",
    "Municipality": "Bosanska Krupa",
    "Categories": "Stomatolog protetičar",
    "Phones": "061 197 774, +387 61 197 774",
    "Average Rating": "5",
    "Latitude": "44.8879181",
    "Longitude": "16.1430804",
    "Website": ""
  },
  {
    "Name": "Stomatoloska ordinacija dr. Emir Kabiljagic",
    "Fulladdress": "Sokak bb, Bosanska Krupa 77240",
    "Municipality": "Bosanska Krupa 77240",
    "Categories": "Zubar",
    "Phones": "061 787 473, +387 61 787 473",
    "Average Rating": "5",
    "Latitude": "44.883466",
    "Longitude": "16.1540636",
    "Website": ""
  },
  {
    "Name": "Ordinacija Sulejmanović",
    "Fulladdress": "V4JX+9FJ, Bosanska Krupa",
    "Municipality": "Bosanska Krupa",
    "Categories": "Klinička bolnica",
    "Phones": "065 222-936, +387 65 222-936",
    "Average Rating": "5",
    "Latitude": "44.8809577",
    "Longitude": "16.1486473",
    "Website": ""
  },
  {
    "Name": "Specijalistička internistička ordinacija Dr Šahinović",
    "Fulladdress": "Bosanska Krupa",
    "Municipality": "",
    "Categories": "Medicinska ordinacija",
    "Phones": "061 197 789, +387 61 197 789",
    "Average Rating": "5",
    "Latitude": "44.880813",
    "Longitude": "16.1551105",
    "Website": ""
  },
  {
    "Name": "Poliklinika Medica",
    "Fulladdress": "511. slavne brdske brigade &, 505. viteške brdske brigade, Bosanska Krupa 77240",
    "Municipality": "505. viteške brdske brigade",
    "Categories": "Medicinska klinika",
    "Phones": "037 471-249, +387 37 471-249",
    "Average Rating": "3.9",
    "Latitude": "44.8796984",
    "Longitude": "16.1527264",
    "Website": "http://poliklinika-medica.ba/"
  },
  {
    "Name": "Ginekološka ordinacija Dr. Hadžipašić",
    "Fulladdress": "Patriotske lige bb, Bosanska Krupa 77240",
    "Municipality": "Bosanska Krupa 77240",
    "Categories": "Ginekolog",
    "Phones": "061 397 206, +387 61 397 206",
    "Average Rating": "",
    "Latitude": "44.8848048",
    "Longitude": "16.1569191",
    "Website": "https://hadzipasic.ba/"
  },
  {
    "Name": "Stomatoloska ordinacija Salcinovic",
    "Fulladdress": "27C6+865, Breza",
    "Municipality": "Breza",
    "Categories": "Stomatološka klinika",
    "Phones": "061 992 861, +387 61 992 861",
    "Average Rating": "4.8",
    "Latitude": "44.0207624",
    "Longitude": "18.2605979",
    "Website": "https://www.facebook.com/Stomatoloska-ordinacija-Salcinovic-437228966351533/"
  },
  {
    "Name": "Stomatološka ordinacija Vahida dr Salkić",
    "Fulladdress": "Stari most bb, Breza 71370",
    "Municipality": "Breza 71370",
    "Categories": "Stomatološka klinika",
    "Phones": "062 179 755, +387 62 179 755",
    "Average Rating": "4.6",
    "Latitude": "44.0226366",
    "Longitude": "18.2646763",
    "Website": ""
  },
  {
    "Name": "Ultrakard",
    "Fulladdress": "Šehidska 20, Breza",
    "Municipality": "Breza",
    "Categories": "Medicinska ordinacija",
    "Phones": "061 191 811, +387 61 191 811",
    "Average Rating": "5",
    "Latitude": "44.0220838",
    "Longitude": "18.2632963",
    "Website": ""
  },
  {
    "Name": "Stomatoloska ordinacija M Dental",
    "Fulladdress": "Breza",
    "Municipality": "",
    "Categories": "Liječnik",
    "Phones": "061 547 108, +387 61 547 108",
    "Average Rating": "5",
    "Latitude": "44.0125539",
    "Longitude": "18.2556252",
    "Website": ""
  },
  {
    "Name": "Stomatološka ordinacija VITA DENTE",
    "Fulladdress": "Alije Izetbegovića bb, Breza 71370",
    "Municipality": "Breza 71370",
    "Categories": "Ortodont",
    "Phones": "062 345 784, +387 62 345 784",
    "Average Rating": "5",
    "Latitude": "44.0168962",
    "Longitude": "18.2595795",
    "Website": "https://www.vita.ba/"
  },
  {
    "Name": "Zubarska ordinacija Salkic",
    "Fulladdress": "27F7+3VC, Breza",
    "Municipality": "Breza",
    "Categories": "Stomatološka klinika",
    "Phones": "",
    "Average Rating": "",
    "Latitude": "44.0226802",
    "Longitude": "18.264632",
    "Website": ""
  },
  {
    "Name": "Dentica",
    "Fulladdress": "Branitelja domovine bb, Busovača 72260",
    "Municipality": "Busovača 72260",
    "Categories": "Stomatološka klinika",
    "Phones": "061 067 111, +387 61 067 111",
    "Average Rating": "5",
    "Latitude": "44.0986757",
    "Longitude": "17.8778177",
    "Website": "http://www.dentica.ba/"
  },
  {
    "Name": "Ema dent",
    "Fulladdress": "Kulina bana, Busovača 72260",
    "Municipality": "Busovača 72260",
    "Categories": "Stomatološka klinika",
    "Phones": "060 33 03 402, +387 60 33 03 402",
    "Average Rating": "5",
    "Latitude": "44.1011484",
    "Longitude": "17.8786347",
    "Website": ""
  },
  {
    "Name": "Dental Grim",
    "Fulladdress": "Zagrebačka bb, Busovača 72260",
    "Municipality": "Busovača 72260",
    "Categories": "Stomatološka klinika",
    "Phones": "063 692 803, +387 63 692 803",
    "Average Rating": "5",
    "Latitude": "44.1000041",
    "Longitude": "17.8808913",
    "Website": ""
  },
  {
    "Name": "Stomatološka Ordinacija O-Dent",
    "Fulladdress": "3VWM+Q22, Busovača",
    "Municipality": "Busovača",
    "Categories": "Stomatološka klinika",
    "Phones": "063 019 400, +387 63 019 400",
    "Average Rating": "4.3",
    "Latitude": "44.0968802",
    "Longitude": "17.8825162",
    "Website": ""
  },
  {
    "Name": "Stomatološka ordinacija dr. Džomba",
    "Fulladdress": "PRC8+RX4, Zlatnih ljiljana, Čelić",
    "Municipality": "Zlatnih ljiljana",
    "Categories": "Stomatološka klinika",
    "Phones": "062 822 088, +387 62 822 088",
    "Average Rating": "5",
    "Latitude": "44.7220645",
    "Longitude": "18.8172989",
    "Website": ""
  },
  {
    "Name": "Služba hitne medicinske pomoći Čelić",
    "Fulladdress": "PR9C+XH8, Šadić Zlatana Zlaje, Čelić 75246",
    "Municipality": "Šadić Zlatana Zlaje",
    "Categories": "Hitna služba",
    "Phones": "035 660-736, +387 35 660-736",
    "Average Rating": "5",
    "Latitude": "44.7199004",
    "Longitude": "18.8214532",
    "Website": ""
  },
  {
    "Name": "Physio Medic",
    "Fulladdress": "Ekrema Agića 56, Čelić",
    "Municipality": "Čelić",
    "Categories": "Fizioterapeut",
    "Phones": "062 876 891, +387 62 876 891",
    "Average Rating": "5",
    "Latitude": "44.7294947",
    "Longitude": "18.8189065",
    "Website": ""
  },
  {
    "Name": "Osteomedic, Doboj Istok",
    "Fulladdress": "Brijesnica Velika 74206",
    "Municipality": "",
    "Categories": "Liječnik",
    "Phones": "062 310 110, +387 62 310 110",
    "Average Rating": "5",
    "Latitude": "44.7224004",
    "Longitude": "18.2082588",
    "Website": ""
  },
  {
    "Name": "Klokotnica 74 207 Doboj Istok",
    "Fulladdress": "Trg Alije Izetbegovića 16, Klokotnica 74207",
    "Municipality": "Klokotnica 74207",
    "Categories": "Stomatološka klinika",
    "Phones": "061 955 217, +387 61 955 217",
    "Average Rating": "5",
    "Latitude": "44.7260177",
    "Longitude": "18.1841202",
    "Website": ""
  },
  {
    "Name": "Stomatološka ordinacija dr. Bećirović",
    "Fulladdress": "M4, Brijesnica Velika",
    "Municipality": "Brijesnica Velika",
    "Categories": "Zubar",
    "Phones": "061 580 527, +387 61 580 527",
    "Average Rating": "5",
    "Latitude": "44.7223759",
    "Longitude": "18.2083276",
    "Website": ""
  },
  {
    "Name": "Stomatoloska Ordinacija Dr Brkic",
    "Fulladdress": "P5GP+653, Klokotnica",
    "Municipality": "Klokotnica",
    "Categories": "Stomatološka klinika",
    "Phones": "",
    "Average Rating": "5",
    "Latitude": "44.7255225",
    "Longitude": "18.1854368",
    "Website": ""
  },
  {
    "Name": "Stomatološka ordinacija Dr Boris Doboj",
    "Fulladdress": "Kralja Dragutina 2B, Doboj 74000",
    "Municipality": "Doboj 74000",
    "Categories": "Stomatološka klinika",
    "Phones": "053 962-699, +387 53 962-699",
    "Average Rating": "4.6",
    "Latitude": "44.7314176",
    "Longitude": "18.0866499",
    "Website": "https://www.facebook.com/share/2i9je7FCQiXAe1cr/"
  },
  {
    "Name": "Dr Stanojevic stomatoloska ordinacija",
    "Fulladdress": "Kralja Aleksandra, Doboj 74000",
    "Municipality": "Doboj 74000",
    "Categories": "Stomatološka radiologija,Liječnik",
    "Phones": "053 242-222, +387 53 242-222",
    "Average Rating": "4.1",
    "Latitude": "44.7339888",
    "Longitude": "18.0844986",
    "Website": "http://www.drstanojevic.net/"
  },
  {
    "Name": "Zdravstvena ustanova Stomatološka ordinacija \"\"Dr.Klokić\"\"",
    "Fulladdress": "Filipa Višnjića 8, Doboj 74000",
    "Municipality": "Doboj 74000",
    "Categories": "Stomatolog protetičar",
    "Phones": "061 429 140, +387 61 429 140",
    "Average Rating": "4.4",
    "Latitude": "44.7296432",
    "Longitude": "18.085015",
    "Website": ""
  },
  {
    "Name": "ZU Dentis, Stomatoloska Ordinacija",
    "Fulladdress": "Doboj 74000",
    "Municipality": "",
    "Categories": "Liječnik",
    "Phones": "065 920-150, +387 65 920-150",
    "Average Rating": "4.5",
    "Latitude": "44.7292351",
    "Longitude": "18.088088",
    "Website": ""
  },
  {
    "Name": "Dr Cvijetić Impladent Stomatološka ordinacija",
    "Fulladdress": "Kralja Aleksandra 80, Doboj 74000",
    "Municipality": "Doboj 74000",
    "Categories": "Stomatološka klinika,Zubar,Oralni kirurg,Ortodont,Stomatolog protetičar",
    "Phones": "066 999-933, +387 66 999-933",
    "Average Rating": "5",
    "Latitude": "44.7379762",
    "Longitude": "18.0897249",
    "Website": "https://cvijeticimpladent.com/"
  },
  {
    "Name": "Stomatološka ordinacija Dent Art Doboj",
    "Fulladdress": "Vojvode Stepe 98, Doboj 74000",
    "Municipality": "Doboj 74000",
    "Categories": "Zubar",
    "Phones": "065 631-395, +387 65 631-395",
    "Average Rating": "5",
    "Latitude": "44.7369445",
    "Longitude": "18.0911424",
    "Website": ""
  },
  {
    "Name": "Dr Konatar",
    "Fulladdress": "Alekse Vidakovića 1, Doboj 74000",
    "Municipality": "Doboj 74000",
    "Categories": "Liječnik",
    "Phones": "053 241-602, +387 53 241-602",
    "Average Rating": "4.7",
    "Latitude": "44.7364353",
    "Longitude": "18.0878088",
    "Website": "http://www.drkonatar.com/"
  },
  {
    "Name": "Maksimovic Klinika",
    "Fulladdress": "P3MP+3MW, Doboj 74000",
    "Municipality": "Doboj 74000",
    "Categories": "Bolnica",
    "Phones": "",
    "Average Rating": "5",
    "Latitude": "44.7327304",
    "Longitude": "18.0867159",
    "Website": ""
  },
  {
    "Name": "Stomatologija Davidović",
    "Fulladdress": "Karađorđeva 53, Doboj 74000",
    "Municipality": "Doboj 74000",
    "Categories": "Zubar",
    "Phones": "065 525-932, +387 65 525-932",
    "Average Rating": "4.4",
    "Latitude": "44.732989",
    "Longitude": "18.0917918",
    "Website": "https://www.stomatologija-davidovic.com/"
  },
  {
    "Name": "Stomatološka ordinacija \"\"Smile Dent Petrović\"\", Doboj",
    "Fulladdress": "Svetog Save 57A, Doboj 74000",
    "Municipality": "Doboj 74000",
    "Categories": "Zubar,Stomatološka klinika,Lokalne usluge zdravstvene skrbi,Medicinska ordinacija",
    "Phones": "",
    "Average Rating": "5",
    "Latitude": "44.7308387",
    "Longitude": "18.08747",
    "Website": "http://www.smiledentpetrovic.com/"
  },
  {
    "Name": "\"\"KUCA ZDRAVLJA dr Marjanovic\"\" Doboj",
    "Fulladdress": "P3HM+WX2, Filipa Višnjića, Doboj 74000",
    "Municipality": "Filipa Višnjića",
    "Categories": "Liječnik",
    "Phones": "053 962-660, +387 53 962-660",
    "Average Rating": "4.3",
    "Latitude": "44.7297697",
    "Longitude": "18.0848954",
    "Website": ""
  },
  {
    "Name": "Zdravstvena ustanova Royal Z Doboj",
    "Fulladdress": "Karađorđeva 18, Doboj 74000",
    "Municipality": "Doboj 74000",
    "Categories": "Medicinska klinika",
    "Phones": "053 250-050, +387 53 250-050",
    "Average Rating": "4.5",
    "Latitude": "44.7337146",
    "Longitude": "18.0871942",
    "Website": "http://www.royalzdoboj.com/"
  },
  {
    "Name": "Zdravstvena ustanova N-MEDIC",
    "Fulladdress": "Krnjinske srpske brigade 317, Doboj 74000",
    "Municipality": "Doboj 74000",
    "Categories": "Medicinska ordinacija,Dom zdravlja,Zdravstveni savjetnik,Lokalne usluge zdravstvene skrbi,Ambulanta",
    "Phones": "053 962-598, +387 53 962-598",
    "Average Rating": "",
    "Latitude": "44.7550627",
    "Longitude": "18.0785999",
    "Website": "https://n-medic.ba/"
  },
  {
    "Name": "Poliklinika \"\"Doboj Jug\"\"",
    "Fulladdress": "Trg 21. mart 74203, Matuzići",
    "Municipality": "Matuzići",
    "Categories": "Medicinska klinika",
    "Phones": "032 691-624, +387 32 691-624",
    "Average Rating": "3.9",
    "Latitude": "44.6969196",
    "Longitude": "18.0488124",
    "Website": "http://poliklinikadobojjug.ba/"
  },
  {
    "Name": "ZU \"\"Stomatolog\"\"",
    "Fulladdress": "Dobojske brigade 67, Doboj 74000",
    "Municipality": "Doboj 74000",
    "Categories": "Liječnik",
    "Phones": "053 226-010, +387 53 226-010",
    "Average Rating": "4.5",
    "Latitude": "44.7158923",
    "Longitude": "18.0815113",
    "Website": ""
  },
  {
    "Name": "Stomatološka ordinacija Dental Art",
    "Fulladdress": "203. brigade 50, Matuzići 74203",
    "Municipality": "Matuzići 74203",
    "Categories": "Stomatološka klinika",
    "Phones": "061 612 222, +387 61 612 222",
    "Average Rating": "5",
    "Latitude": "44.6975758",
    "Longitude": "18.0516034",
    "Website": ""
  },
  {
    "Name": "Panmedik",
    "Fulladdress": "Krnjinske srpske brigade 74000, Doboj 74000",
    "Municipality": "Doboj 74000",
    "Categories": "Zdravstveni savjetnik",
    "Phones": "053 202-931, +387 53 202-931",
    "Average Rating": "4.7",
    "Latitude": "44.7550687",
    "Longitude": "18.0789649",
    "Website": ""
  },
  {
    "Name": "ZU oftalmološka ordinacija “Medicus”",
    "Fulladdress": "Cara Dušana L8, Doboj 74000",
    "Municipality": "Doboj 74000",
    "Categories": "Oftalmolog",
    "Phones": "053 241-638, +387 53 241-638",
    "Average Rating": "5",
    "Latitude": "44.7275719",
    "Longitude": "18.0802951",
    "Website": ""
  },
  {
    "Name": "Здравствена установа \"\"МЕДИКО центар здравља\"\"",
    "Fulladdress": "Николе Пашића 27, Doboj 74000",
    "Municipality": "Doboj 74000",
    "Categories": "Medicinska klinika,Dermatolog,Liječnik,Endokrinolog,Liječnik obiteljske medicine,Ginekolog,Medicinski laboratorij,Pedijatar,Radiolog,Reumatolog",
    "Phones": "066 117-715, +387 66 117-715",
    "Average Rating": "4.3",
    "Latitude": "44.7319087",
    "Longitude": "18.0919793",
    "Website": "https://www.mediko.ba/"
  },
  {
    "Name": "Ordinacija Rada",
    "Fulladdress": "Principova, Foča 73300",
    "Municipality": "Foča 73300",
    "Categories": "Liječnik",
    "Phones": "065 528-708, +387 65 528-708",
    "Average Rating": "5",
    "Latitude": "43.5084803",
    "Longitude": "18.7756167",
    "Website": ""
  },
  {
    "Name": "Foca University Hospital",
    "Fulladdress": "Studentska 5, Foča 73300",
    "Municipality": "Foča 73300",
    "Categories": "Sveučilišna bolnica",
    "Phones": "058 222-500, +387 58 222-500",
    "Average Rating": "3.8",
    "Latitude": "43.525149",
    "Longitude": "18.779524",
    "Website": "http://www.bolnicafoca.com/"
  },
  {
    "Name": "Stomatološka ordinacija \"\"Ristanović\"\"",
    "Fulladdress": "Principova bb, Foča",
    "Municipality": "Foča",
    "Categories": "Zubar,Stomatološka klinika",
    "Phones": "066 200-957, +387 66 200-957",
    "Average Rating": "",
    "Latitude": "43.5084407",
    "Longitude": "18.7756852",
    "Website": ""
  },
  {
    "Name": "Optika Nada",
    "Fulladdress": "GQ6H+25C, Svetosavska, Foča",
    "Municipality": "Svetosavska",
    "Categories": "Liječnik",
    "Phones": "058 232-330, +387 58 232-330",
    "Average Rating": "4.7",
    "Latitude": "43.5100528",
    "Longitude": "18.7778853",
    "Website": ""
  },
  {
    "Name": "Specijalistički centar za stomatologiju Medicinskog fakulteta Foča",
    "Fulladdress": "Studentska 5, Foča 73300",
    "Municipality": "Foča 73300",
    "Categories": "Stomatološka klinika",
    "Phones": "058 211-906, +387 58 211-906",
    "Average Rating": "5",
    "Latitude": "43.5238754",
    "Longitude": "18.7786331",
    "Website": ""
  },
  {
    "Name": "Faculty of Medicine Foča",
    "Fulladdress": "Studentska 5, Foča 73300",
    "Municipality": "Foča 73300",
    "Categories": "Medicinska škola",
    "Phones": "058 210-420, +387 58 210-420",
    "Average Rating": "4.5",
    "Latitude": "43.52727",
    "Longitude": "18.7822042",
    "Website": ""
  },
  {
    "Name": "ORDINACIJA ZA SRCE DR ADROVIĆ",
    "Fulladdress": "43. drinske brigade 13 A, Goražde",
    "Municipality": "Goražde",
    "Categories": "Liječnik",
    "Phones": "061 936 496, +387 61 936 496",
    "Average Rating": "4.8",
    "Latitude": "43.6646072",
    "Longitude": "18.9798508",
    "Website": ""
  },
  {
    "Name": "Stomatološka ordinacija Maljukan Predrag",
    "Fulladdress": "MX8G+86R, Ibrahima Čelika, Goražde",
    "Municipality": "Ibrahima Čelika",
    "Categories": "Stomatološka klinika",
    "Phones": "038 221-044, +387 38 221-044",
    "Average Rating": "5",
    "Latitude": "43.6658511",
    "Longitude": "18.9755043",
    "Website": ""
  },
  {
    "Name": "Stomatološka ordinacija your smile",
    "Fulladdress": "Ulica Šukrije Kukavice br 42, Goražde 73000",
    "Municipality": "Goražde 73000",
    "Categories": "Zubar",
    "Phones": "063 844 028, +387 63 844 028",
    "Average Rating": "5",
    "Latitude": "43.6672051",
    "Longitude": "18.9721767",
    "Website": "https://dr-zinaidasijercic.ba/"
  },
  {
    "Name": "Stomatološka ordinacija dr.Kalie",
    "Fulladdress": "Kulina Bana 19, Goražde 73000",
    "Municipality": "Goražde 73000",
    "Categories": "Stomatološka klinika",
    "Phones": "061 360 755, +387 61 360 755",
    "Average Rating": "5",
    "Latitude": "43.6689179",
    "Longitude": "18.9741902",
    "Website": ""
  },
  {
    "Name": "Dr Kamenica",
    "Fulladdress": "Sinan paše Sijerčića 8, Goražde 73000",
    "Municipality": "Goražde 73000",
    "Categories": "Stomatološka klinika",
    "Phones": "061 360 626, +387 61 360 626",
    "Average Rating": "5",
    "Latitude": "43.667531",
    "Longitude": "18.9751423",
    "Website": "http://www.dr-kamenica.com/"
  },
  {
    "Name": "Specijalistička ordinacija Dr Begović",
    "Fulladdress": "Ibrahima Popovića 5, Goražde 73000",
    "Municipality": "Goražde 73000",
    "Categories": "Liječnik",
    "Phones": "",
    "Average Rating": "",
    "Latitude": "43.6615557",
    "Longitude": "18.9740892",
    "Website": ""
  },
  {
    "Name": "Goražde",
    "Fulladdress": "Zdravstvenih radnika bb, Goražde 73000",
    "Municipality": "Goražde 73000",
    "Categories": "Medicinska grupa",
    "Phones": "038 221-072, +387 38 221-072",
    "Average Rating": "3.9",
    "Latitude": "43.6643695",
    "Longitude": "18.9769319",
    "Website": ""
  },
  {
    "Name": "Poliklinika Eurofarm Centar - Goražde",
    "Fulladdress": "Ferida Dizdarevića, Goražde",
    "Municipality": "Goražde",
    "Categories": "Medicinska klinika",
    "Phones": "038 240-240, +387 38 240-240",
    "Average Rating": "4.9",
    "Latitude": "43.6654763",
    "Longitude": "18.976898",
    "Website": ""
  },
  {
    "Name": "Kantonalna bolnica Goražde",
    "Fulladdress": "Zdravstvenih radnika 6, Goražde 73000",
    "Municipality": "Goražde 73000",
    "Categories": "Bolnica",
    "Phones": "038 241-210, +387 38 241-210",
    "Average Rating": "3.5",
    "Latitude": "43.6641366",
    "Longitude": "18.9774817",
    "Website": "http://bolnica-gorazde.ba/"
  },
  {
    "Name": "Ordinacija Dr. Delić",
    "Fulladdress": "Mehmeda Vehbi ef. Šemsekadića 29, Gračanica 75320",
    "Municipality": "Gračanica 75320",
    "Categories": "Medicinska klinika",
    "Phones": "061 805 850, +387 61 805 850",
    "Average Rating": "5",
    "Latitude": "44.7060098",
    "Longitude": "18.3098074",
    "Website": "https://drdelic.com/"
  },
  {
    "Name": "Ordinacija dr. Terzić",
    "Fulladdress": "Bazen bb, Gračanica 75320",
    "Municipality": "Gračanica 75320",
    "Categories": "Medicinska ordinacija",
    "Phones": "061 194 152, +387 61 194 152",
    "Average Rating": "5",
    "Latitude": "44.7107933",
    "Longitude": "18.3067273",
    "Website": ""
  },
  {
    "Name": "Ordinacija Ćerimagić",
    "Fulladdress": "Čiriš 42, Gračanica",
    "Municipality": "Gračanica",
    "Categories": "Ginekolog",
    "Phones": "035 706-536, +387 35 706-536",
    "Average Rating": "4.6",
    "Latitude": "44.7031368",
    "Longitude": "18.3074477",
    "Website": ""
  },
  {
    "Name": "Stomatološka ordinacija \"\"Dr. Davud\"\" Gračanica",
    "Fulladdress": "Hazima Vikala 20, Gračanica 75320",
    "Municipality": "Gračanica 75320",
    "Categories": "Stomatološka klinika",
    "Phones": "035 703-588, +387 35 703-588",
    "Average Rating": "5",
    "Latitude": "44.7064643",
    "Longitude": "18.3130758",
    "Website": "https://ordinacijadrdavud.ba/"
  },
  {
    "Name": "Ordinacija porodične medicine dr. Abdulah Mešić",
    "Fulladdress": "ul. Mehmeda Vehbi ef. Šemsekadića, Gračanica 75320",
    "Municipality": "Gračanica 75320",
    "Categories": "Liječnik opće prakse",
    "Phones": "062 799 663, +387 62 799 663",
    "Average Rating": "5",
    "Latitude": "44.7059345",
    "Longitude": "18.3098246",
    "Website": ""
  },
  {
    "Name": "Stomatološka ordinacija Dervišefendić - Gračanica",
    "Fulladdress": "Mehmeda Ahmedbegovića, Gračanica 75320",
    "Municipality": "Gračanica 75320",
    "Categories": "Stomatološka klinika",
    "Phones": "061 948 621, +387 61 948 621",
    "Average Rating": "4.7",
    "Latitude": "44.7015037",
    "Longitude": "18.3071994",
    "Website": ""
  },
  {
    "Name": "MEDICUS A",
    "Fulladdress": "Mustafe Rešidbegovića 2, Gračanica 75320",
    "Municipality": "Gračanica 75320",
    "Categories": "Medicinska ordinacija",
    "Phones": "035 703-178, +387 35 703-178",
    "Average Rating": "3.9",
    "Latitude": "44.7057892",
    "Longitude": "18.3092117",
    "Website": "https://www.medicus-a.ba/"
  },
  {
    "Name": "Stomatološka ordinacija \"\"Avdagić”",
    "Fulladdress": "Alije Izetbegovića 18a, Gračanica 75320",
    "Municipality": "Gračanica 75320",
    "Categories": "Zubar",
    "Phones": "061 734 146, +387 61 734 146",
    "Average Rating": "5",
    "Latitude": "44.7048267",
    "Longitude": "18.31071",
    "Website": ""
  },
  {
    "Name": "Stomatološka ordinacija Catovic",
    "Fulladdress": "Ahmeta Šiljića 3, Gračanica 75320",
    "Municipality": "Gračanica 75320",
    "Categories": "Stomatološka klinika",
    "Phones": "035 706-045, +387 35 706-045",
    "Average Rating": "5",
    "Latitude": "44.7050384",
    "Longitude": "18.3122763",
    "Website": "http://ordinacijacatovic.ba/"
  },
  {
    "Name": "Dr. Salihbašić - Ordinacija interne medicine",
    "Fulladdress": "P826+W3X, Muhameda Mašića, Gračanica",
    "Municipality": "Muhameda Mašića",
    "Categories": "Liječnik",
    "Phones": "061 178 726, +387 61 178 726",
    "Average Rating": "4.6",
    "Latitude": "44.7023732",
    "Longitude": "18.3102242",
    "Website": ""
  },
  {
    "Name": "Ginekološka ordinacija \"\"Dr Melika\"\" vl.Dr.Melika Dervišefendić Peljto dr.med.sci. spec.ginekologije i akušerstva",
    "Fulladdress": "Patkovača 8, Gračanica 75320",
    "Municipality": "Gračanica 75320",
    "Categories": "Ginekolog,Medicinska ordinacija",
    "Phones": "061 721 949, +387 61 721 949",
    "Average Rating": "5",
    "Latitude": "44.7030225",
    "Longitude": "18.3070288",
    "Website": ""
  },
  {
    "Name": "Dr. Munevera Šuvalić",
    "Fulladdress": "Hadžikadijina 25, Gračanica 75320",
    "Municipality": "Gračanica 75320",
    "Categories": "Ginekolog",
    "Phones": "035 702-456, +387 35 702-456",
    "Average Rating": "4.4",
    "Latitude": "44.7072582",
    "Longitude": "18.3135951",
    "Website": ""
  },
  {
    "Name": "Dr. Adil Daffalla",
    "Fulladdress": "Hajdarovac, Gračanica",
    "Municipality": "Gračanica",
    "Categories": "Medicinska klinika",
    "Phones": "035 704-361, +387 35 704-361",
    "Average Rating": "4.4",
    "Latitude": "44.6902301",
    "Longitude": "18.3055654",
    "Website": ""
  },
  {
    "Name": "Natural Medic",
    "Fulladdress": "Patriotske lige br. 4, Gračanica",
    "Municipality": "Gračanica",
    "Categories": "Medicinska ordinacija",
    "Phones": "061 292 499, +387 61 292 499",
    "Average Rating": "5",
    "Latitude": "44.6950042",
    "Longitude": "18.2971145",
    "Website": "http://www.naturalmedic-bih.com/"
  },
  {
    "Name": "Ordinacija opšte stomatologije \"\"City Smile\"\"",
    "Fulladdress": "P835+5XH, Sultan Mehmeda, Gračanica 75320",
    "Municipality": "Sultan Mehmeda",
    "Categories": "Zubar",
    "Phones": "060 33 49 663, +387 60 33 49 663",
    "Average Rating": "4.9",
    "Latitude": "44.7030625",
    "Longitude": "18.3099375",
    "Website": "https://www.citysmile.net/"
  },
  {
    "Name": "Dr. Mustafa Beganovic General Hospital",
    "Fulladdress": "M. Ahmedbegovića 50, Gračanica 75320",
    "Municipality": "Gračanica 75320",
    "Categories": "Bolnica",
    "Phones": "035 702-032, +387 35 702-032",
    "Average Rating": "4.4",
    "Latitude": "44.698253",
    "Longitude": "18.302476",
    "Website": ""
  },
  {
    "Name": "Privatna psihijatrijska ordinacija \"\"dr Hodžić\"\"",
    "Fulladdress": "Patriotske lige 18, Gračanica 75320",
    "Municipality": "Gračanica 75320",
    "Categories": "Medicinska ordinacija",
    "Phones": "061 168 686, +387 61 168 686",
    "Average Rating": "",
    "Latitude": "44.6971049",
    "Longitude": "18.3002817",
    "Website": ""
  },
  {
    "Name": "Poliklinika PrimaMedic i PrimaLab",
    "Fulladdress": "Zlatnih ljiljana, Gračanica 75320",
    "Municipality": "Gračanica 75320",
    "Categories": "Klinička bolnica,Medicinski laboratorij",
    "Phones": "062 800 815, +387 62 800 815",
    "Average Rating": "4.2",
    "Latitude": "44.6939323",
    "Longitude": "18.3003819",
    "Website": "https://primalab.ba/"
  },
  {
    "Name": "Stomatološka ordinacija A-Dent",
    "Fulladdress": "Ahmeta Šiljića 8, Gračanica 75320",
    "Municipality": "Gračanica 75320",
    "Categories": "Stomatološka klinika",
    "Phones": "061 665 014, +387 61 665 014",
    "Average Rating": "",
    "Latitude": "44.7049604",
    "Longitude": "18.3120363",
    "Website": "https://www.a-dent.ba/"
  },
  {
    "Name": "Veterinarska stanica \"\"VETTeam\"\" doo",
    "Fulladdress": "Branilaca grada 10, Gračanica 75320",
    "Municipality": "Gračanica 75320",
    "Categories": "Hitna veterinarska služba",
    "Phones": "035 704-222, +387 35 704-222",
    "Average Rating": "4",
    "Latitude": "44.6876322",
    "Longitude": "18.3127104",
    "Website": ""
  },
  {
    "Name": "Medicinsko-biohemijski laboratorij Medlab",
    "Fulladdress": "22. divizije bb, Gračanica 75320",
    "Municipality": "Gračanica 75320",
    "Categories": "Laboratorij",
    "Phones": "060 33 13 242, +387 60 33 13 242",
    "Average Rating": "4.7",
    "Latitude": "44.7062867",
    "Longitude": "18.3109231",
    "Website": "https://www.medlab.co.ba/"
  },
  {
    "Name": "Dental-Lab A&A",
    "Fulladdress": "Hermana Gmeinera, Gračanica 75320",
    "Municipality": "Gračanica 75320",
    "Categories": "Zubni laboratorij",
    "Phones": "061 868 303, +387 61 868 303",
    "Average Rating": "5",
    "Latitude": "44.7122923",
    "Longitude": "18.315895",
    "Website": ""
  },
  {
    "Name": "Stomatološka Ordinacija Dr Velma",
    "Fulladdress": "Kakanj",
    "Municipality": "",
    "Categories": "Zubar,Hitna stomatološka služba,Oralni kirurg",
    "Phones": "061 693 782, +387 61 693 782",
    "Average Rating": "4.9",
    "Latitude": "44.1361635",
    "Longitude": "18.1247285",
    "Website": "https://www.facebook.com/pages/category/General-Dentist/Stomatolo%C5%A1ka-ordinacija-DrVelma-210992822245544/"
  },
  {
    "Name": "Stomatološka ordinacija - PREMIUM DENTAL",
    "Fulladdress": "Branilaca 1, Kakanj 72240",
    "Municipality": "Kakanj 72240",
    "Categories": "Stomatološka klinika",
    "Phones": "062 901 902, +387 62 901 902",
    "Average Rating": "4.9",
    "Latitude": "44.1303649",
    "Longitude": "18.1184167",
    "Website": ""
  },
  {
    "Name": "Stomatološka Ordinacija \"\"Mirha\"\"",
    "Fulladdress": "44J9+3J2, Alije Izetbegovića, Kakanj",
    "Municipality": "Alije Izetbegovića",
    "Categories": "Stomatološka klinika",
    "Phones": "061 979 551, +387 61 979 551",
    "Average Rating": "3.5",
    "Latitude": "44.1301481",
    "Longitude": "18.1190217",
    "Website": ""
  },
  {
    "Name": "Dental Studio",
    "Fulladdress": "Alije Izetbegovića, Kakanj",
    "Municipality": "Kakanj",
    "Categories": "Zubar",
    "Phones": "032 553-344, +387 32 553-344",
    "Average Rating": "4.2",
    "Latitude": "44.1287011",
    "Longitude": "18.1174163",
    "Website": ""
  },
  {
    "Name": "GinekoMedika",
    "Fulladdress": "Branilaca, Kakanj",
    "Municipality": "Kakanj",
    "Categories": "Ginekološka klinika",
    "Phones": "061 414 005, +387 61 414 005",
    "Average Rating": "5",
    "Latitude": "44.1261056",
    "Longitude": "18.1150168",
    "Website": ""
  },
  {
    "Name": "Stomatoloska ordinacija Dr.Karić",
    "Fulladdress": "Branilaca 3, Kakanj 72240",
    "Municipality": "Kakanj 72240",
    "Categories": "Stomatološka klinika",
    "Phones": "061 608 483, +387 61 608 483",
    "Average Rating": "5",
    "Latitude": "44.1265849",
    "Longitude": "18.1153956",
    "Website": "https://www.instagram.com/dr.karic_dent"
  },
  {
    "Name": "Stomatoloska ordinacija dr. Nizama Spahic",
    "Fulladdress": "Alije Izetbegovića, Kakanj 72240",
    "Municipality": "Kakanj 72240",
    "Categories": "Stomatološka klinika",
    "Phones": "062 953 900, +387 62 953 900",
    "Average Rating": "4",
    "Latitude": "44.1269357",
    "Longitude": "18.1161434",
    "Website": ""
  },
  {
    "Name": "Stomatološka ordinacija Dr.Belkisa",
    "Fulladdress": "Selima ef.Merdanovića br 6, Kakanj",
    "Municipality": "Kakanj",
    "Categories": "Zubar",
    "Phones": "060 31 47 216, +387 60 31 47 216",
    "Average Rating": "",
    "Latitude": "44.1207137",
    "Longitude": "18.1101405",
    "Website": ""
  },
  {
    "Name": "BaHa lab - Dijagnostička Medicinsko Biohemijska Laboratorija",
    "Fulladdress": "CVVF+9WH, Patriotske lige, Kalesija Grad 75260",
    "Municipality": "Patriotske lige",
    "Categories": "Laboratorij",
    "Phones": "",
    "Average Rating": "5",
    "Latitude": "44.4434286",
    "Longitude": "18.8748508",
    "Website": ""
  },
  {
    "Name": "Polyclinic OK Medic",
    "Fulladdress": "CVX9+XVC, Prnjavor bb",
    "Municipality": "Prnjavor bb",
    "Categories": "Medicinska klinika",
    "Phones": "062 431 301, +387 62 431 301",
    "Average Rating": "4.5",
    "Latitude": "44.4499265",
    "Longitude": "18.8696424",
    "Website": "http://www.oklab.ba/"
  },
  {
    "Name": "OK-LAB 2 CENTAR",
    "Fulladdress": "Trg šehida, Kalesija Grad",
    "Municipality": "Kalesija Grad",
    "Categories": "Medicinski laboratorij",
    "Phones": "061 206 129, +387 61 206 129",
    "Average Rating": "",
    "Latitude": "44.4428642",
    "Longitude": "18.8740601",
    "Website": ""
  },
  {
    "Name": "\"\"Dentalive\"\" Stomatološka ordinacija Kalesija",
    "Fulladdress": "Patriotske lige 6, Kalesija Grad",
    "Municipality": "Kalesija Grad",
    "Categories": "Zubar",
    "Phones": "",
    "Average Rating": "5",
    "Latitude": "44.4432384",
    "Longitude": "18.8732904",
    "Website": ""
  },
  {
    "Name": "Očni Dr. Husić",
    "Fulladdress": "CVVF+HM2, Kalesijskih brigada, Kalesija Grad 75260",
    "Municipality": "Kalesijskih brigada",
    "Categories": "Oftalmolog",
    "Phones": "061 803 589, +387 61 803 589",
    "Average Rating": "4",
    "Latitude": "44.4438928",
    "Longitude": "18.8741551",
    "Website": "http://www.optikavid.com/"
  },
  {
    "Name": "Optika Zulić",
    "Fulladdress": "Žrtava genocida u Srebrenici 3, Kalesija Grad 75260",
    "Municipality": "Kalesija 75260",
    "Categories": "Optičar",
    "Phones": "062 378 115, +387 62 378 115",
    "Average Rating": "5",
    "Latitude": "44.441938",
    "Longitude": "18.8760791",
    "Website": ""
  },
  {
    "Name": "PZU Poliklinika EHO Kiseljak",
    "Fulladdress": "71250 M. Maka Dizdara 23, Kiseljak 71250",
    "Municipality": "Kiseljak 71250",
    "Categories": "Medicinska klinika",
    "Phones": "030 879-577, +387 30 879-577",
    "Average Rating": "4.1",
    "Latitude": "43.9463903",
    "Longitude": "18.0718757",
    "Website": "http://www.poliklinikaeho.ba/"
  },
  {
    "Name": "P Z U Poliklinika Vita MM",
    "Fulladdress": "Josipa bana Jelačića, Kiseljak 71250",
    "Municipality": "Kiseljak 71250",
    "Categories": "Medicinska klinika",
    "Phones": "063 442 335, +387 63 442 335",
    "Average Rating": "3.7",
    "Latitude": "43.9403998",
    "Longitude": "18.0810413",
    "Website": "http://www.vitamm.ba/"
  },
  {
    "Name": "Stomatološka ordinacija Franković",
    "Fulladdress": "Kraljice Katarine, Kiseljak 71250",
    "Municipality": "Kiseljak 71250",
    "Categories": "Stomatološka klinika",
    "Phones": "030 334-070, +387 30 334-070",
    "Average Rating": "4.6",
    "Latitude": "43.9387238",
    "Longitude": "18.0806557",
    "Website": "https://dentalfrankovic.com/index.php"
  },
  {
    "Name": "Stomatološka ordinacija dr. Marinko Grgić",
    "Fulladdress": "Dalmatinska 5, Kiseljak 71250",
    "Municipality": "Kiseljak 71250",
    "Categories": "Stomatološka klinika",
    "Phones": "063 404 909, +387 63 404 909",
    "Average Rating": "4.9",
    "Latitude": "43.9362118",
    "Longitude": "18.0825328",
    "Website": "http://www.drmarinkogrgic.com/"
  },
  {
    "Name": "DA Poliklinika",
    "Fulladdress": "Josipa bana Jelačića 39, Kiseljak 71250",
    "Municipality": "Kiseljak 71250",
    "Categories": "Stomatološka klinika,Kozmetički stomatolog,Specijalist za zubne implantate,Stomatološka radiologija,Zubar,Stomatolog protetičar,Oralni kirurg,Ortodont,Parodontolog,Usluga izbjeljivanja zubi",
    "Phones": "030 334-455, +387 30 334-455",
    "Average Rating": "4.8",
    "Latitude": "43.9436673",
    "Longitude": "18.0772186",
    "Website": "http://da-poliklinika.com/"
  },
  {
    "Name": "Pedijatrijska ordinacija dr. nada Kuzman",
    "Fulladdress": "W3WC+R59, Kiseljak",
    "Municipality": "Kiseljak",
    "Categories": "Medicinska ordinacija",
    "Phones": "030 879-181, +387 30 879-181",
    "Average Rating": "5",
    "Latitude": "43.9470252",
    "Longitude": "18.0704689",
    "Website": ""
  },
  {
    "Name": "Kraljević Smile Designer",
    "Fulladdress": "Brnjaci 71250",
    "Municipality": "",
    "Categories": "Zubar",
    "Phones": "063 201 111, +387 63 201 111",
    "Average Rating": "4.8",
    "Latitude": "43.9164479",
    "Longitude": "18.1245812",
    "Website": ""
  },
  {
    "Name": "Pedijatar Dr. Kuzman",
    "Fulladdress": "Paržavica put bb, Kiseljak",
    "Municipality": "Kiseljak",
    "Categories": "Pedijatar",
    "Phones": "",
    "Average Rating": "",
    "Latitude": "43.9399783",
    "Longitude": "18.0786274",
    "Website": ""
  },
  {
    "Name": "Dr.Uzeir",
    "Fulladdress": "6MGR+GQR, Kladanj",
    "Municipality": "Kladanj",
    "Categories": "Zubar",
    "Phones": "062 583 931, +387 62 583 931",
    "Average Rating": "4.6",
    "Latitude": "44.2263576",
    "Longitude": "18.6918754",
    "Website": ""
  },
  {
    "Name": "Medent",
    "Fulladdress": "Kladanjskih brigada 35, Kladanj",
    "Municipality": "Kladanj",
    "Categories": "Stomatološka klinika",
    "Phones": "062 700 838, +387 62 700 838",
    "Average Rating": "5",
    "Latitude": "44.2283272",
    "Longitude": "18.6952999",
    "Website": ""
  },
  {
    "Name": "Specijalistička internistička ordinacija sa UZV dijagnostikom srca \"\"Dr. Bašić\"\"",
    "Fulladdress": "Dr. Irfana Ljubijankića 181, Bihać 77000",
    "Municipality": "Bihać 77000",
    "Categories": "Medicinska ordinacija",
    "Phones": "061 872 366, +387 61 872 366",
    "Average Rating": "4.9",
    "Latitude": "44.8246659",
    "Longitude": "15.8480875",
    "Website": ""
  },
  {
    "Name": "Poliklinika Medica",
    "Fulladdress": "Ivana Gorana Kovačića 1, Bihać 77000",
    "Municipality": "Bihać 77000",
    "Categories": "Medicinska klinika",
    "Phones": "037 310-207, +387 37 310-207",
    "Average Rating": "4.1",
    "Latitude": "44.8111421",
    "Longitude": "15.875051",
    "Website": "http://poliklinika-medica.ba/"
  },
  {
    "Name": "PZU Poliklinika Muminović Bihać",
    "Fulladdress": "Petog korpusa 1, Bihać 77000",
    "Municipality": "Bihać 77000",
    "Categories": "Medicinska klinika",
    "Phones": "037 229-780, +387 37 229-780",
    "Average Rating": "3.6",
    "Latitude": "44.8128855",
    "Longitude": "15.8695954",
    "Website": "http://www.muminovic.ba/"
  },
  {
    "Name": "Ordinacija dr. Mahmić",
    "Fulladdress": "RV64+7W7, Ceravačka brda 109, Bihać 77000",
    "Municipality": "Ceravačka brda 109",
    "Categories": "Medicinska ordinacija",
    "Phones": "060 33 34 333, +387 60 33 34 333",
    "Average Rating": "5",
    "Latitude": "44.810679",
    "Longitude": "15.8573285",
    "Website": ""
  },
  {
    "Name": "Privatna internistička ordinacija ALFA",
    "Fulladdress": "Ulica Irfana Ljubijankića bb, Bihać 77000",
    "Municipality": "Bihać 77000",
    "Categories": "Medicinska ordinacija",
    "Phones": "037 227-333, +387 37 227-333",
    "Average Rating": "4.8",
    "Latitude": "44.8190474",
    "Longitude": "15.8627746",
    "Website": "http://ordinacija-alfa.ba/"
  },
  {
    "Name": "Internističko-Pedijatrijska-Gastroenterološka ordinacija Botonjić",
    "Fulladdress": "Mehmed Paše Sokolovića 11, Bihać 77000",
    "Municipality": "Bihać 77000",
    "Categories": "Medicinska klinika",
    "Phones": "061 465 258, +387 61 465 258",
    "Average Rating": "4.4",
    "Latitude": "44.8164643",
    "Longitude": "15.8597608",
    "Website": "https://www.facebook.com/PedijatarBihac/"
  },
  {
    "Name": "Ordinacija Dr. Kurtalic",
    "Fulladdress": "Brčanska, Bihać, Federation of Bosnia and Herzegovina, Bihać 77000",
    "Municipality": "Bihać 77000",
    "Categories": "Liječnik",
    "Phones": "061 024 054, +387 61 024 054",
    "Average Rating": "5",
    "Latitude": "44.8283151",
    "Longitude": "15.8833766",
    "Website": "https://www.facebook.com/ordinacija.drkurtalic?fref=ts&ref=br_tf"
  },
  {
    "Name": "Kirurška ordinacija dr Sivić",
    "Fulladdress": "Mehmeda Džanića bb, Bihać 77000",
    "Municipality": "Bihać 77000",
    "Categories": "Pedijatrijski kirurg",
    "Phones": "061 174 639, +387 61 174 639",
    "Average Rating": "5",
    "Latitude": "44.8139562",
    "Longitude": "15.8541103",
    "Website": ""
  },
  {
    "Name": "Ordinacija Dr. Čolaković",
    "Fulladdress": "Bosanskih gazija 41, Bihać 77000",
    "Municipality": "Bihać 77000",
    "Categories": "Pedijatar,Kirurg",
    "Phones": "061 415 252, +387 61 415 252",
    "Average Rating": "4.7",
    "Latitude": "44.805287",
    "Longitude": "15.8581107",
    "Website": "https://www.facebook.com/ordinacijadrcolakovic?mibextid=D4KYlr"
  },
  {
    "Name": "Hidžama Bihać",
    "Fulladdress": "Harmani, Muhsina Rizvića 17, Bihać 77000",
    "Municipality": "Muhsina Rizvića 17",
    "Categories": "Medicinska ordinacija",
    "Phones": "060 32 96 353, +387 60 32 96 353",
    "Average Rating": "5",
    "Latitude": "44.8100375",
    "Longitude": "15.8639497",
    "Website": "https://www.facebook.com/CuppingTherapyBihac"
  },
  {
    "Name": "Stomatološka ordinacija \"\"dr. Ramić\"\"",
    "Fulladdress": "Bosanskih banova 9, Bihać 77000",
    "Municipality": "Bihać 77000",
    "Categories": "Stomatološka klinika",
    "Phones": "061 055 117, +387 61 055 117",
    "Average Rating": "5",
    "Latitude": "44.8153868",
    "Longitude": "15.8671767",
    "Website": "http://www.stomatoloskaordinacijaramic.com/"
  },
  {
    "Name": "Stomatološka ordinacija \"\"Zdrav Osmijeh\"\" Bihać",
    "Fulladdress": "Jovana Bijelića 3, Bihać 77000",
    "Municipality": "Bihać 77000",
    "Categories": "Zubar,Kozmetički stomatolog,Stomatološka klinika,Stomatolog protetičar,Hitna stomatološka služba,Pedijatrijski stomatolog",
    "Phones": "061 806 491, +387 61 806 491",
    "Average Rating": "5",
    "Latitude": "44.8090862",
    "Longitude": "15.8652373",
    "Website": ""
  },
  {
    "Name": "Stomatološka ordinacija Dental Art Bihać",
    "Fulladdress": "Dr. Irfana Ljubijankića 150, Bihać 77000",
    "Municipality": "Bihać 77000",
    "Categories": "Stomatološka klinika",
    "Phones": "061 699 317, +387 61 699 317",
    "Average Rating": "4.9",
    "Latitude": "44.8221678",
    "Longitude": "15.855607",
    "Website": ""
  },
  {
    "Name": "Grupna privatna praksa \"\" Dr. Kardašević\"\"",
    "Fulladdress": "Fra Bosiljka Ljevara bb, Bihać 77000",
    "Municipality": "Bihać 77000",
    "Categories": "Liječnik",
    "Phones": "061 155 245, +387 61 155 245",
    "Average Rating": "4.8",
    "Latitude": "44.8110303",
    "Longitude": "15.8618868",
    "Website": ""
  },
  {
    "Name": "Ordinacija Fizikalne Medicine i Rehabilitacije Fiziomedical vlasnik Hana Rošić",
    "Fulladdress": "Darivalaca krvi, Bihać 77000",
    "Municipality": "Bihać 77000",
    "Categories": "Klinika za fizikalnu terapiju",
    "Phones": "061 192 623, +387 61 192 623",
    "Average Rating": "4.8",
    "Latitude": "44.8105103",
    "Longitude": "15.86187",
    "Website": ""
  },
  {
    "Name": "Stomatološka ordinacija \"\"Moj osmijeh\"\"",
    "Fulladdress": "Jablanska 15, Bihać 77000",
    "Municipality": "Bihać 77000",
    "Categories": "Stomatološka klinika",
    "Phones": "062 395 160, +387 62 395 160",
    "Average Rating": "5",
    "Latitude": "44.8221301",
    "Longitude": "15.881418",
    "Website": "https://share.google/images/lCwwtmx22w9QxFVkb%20%20https://share.google/images/qIIXvZWQHZZQyYZnd"
  },
  {
    "Name": "Stomatološka ordinacija dr. Fajković",
    "Fulladdress": "Izeta Sarajlića bb, Bihać 77000",
    "Municipality": "Bihać 77000",
    "Categories": "Zubar",
    "Phones": "062 698 825, +387 62 698 825",
    "Average Rating": "5",
    "Latitude": "44.8197281",
    "Longitude": "15.8568776",
    "Website": ""
  },
  {
    "Name": "Stomatološki Centar Prim.Dr. Irfan Muminović",
    "Fulladdress": "Petog korpusa 1, Bihać 77000",
    "Municipality": "Bihać 77000",
    "Categories": "Stomatološka klinika",
    "Phones": "037 223-553, +387 37 223-553",
    "Average Rating": "4.6",
    "Latitude": "44.8129559",
    "Longitude": "15.8694621",
    "Website": "http://www.muminovic.ba/stomatologija"
  },
  {
    "Name": "Stomatološka ordinacija - Unadent - Bihać",
    "Fulladdress": "Mehmed Spahe 6, Bihać 77000",
    "Municipality": "Bihać 77000",
    "Categories": "Zubar,Parodontolog specijaliziran za zubne implantate,Oralni kirurg",
    "Phones": "061 174 546, +387 61 174 546",
    "Average Rating": "4.8",
    "Latitude": "44.8165281",
    "Longitude": "15.860229",
    "Website": "http://www.unadent.ba/"
  },
  {
    "Name": "Opća stomatološka ordinacija \"\"E-Dental\"\"",
    "Fulladdress": "Dr. Irfana Ljubijankića 44, Bihać 77000",
    "Municipality": "Bihać 77000",
    "Categories": "Zubar",
    "Phones": "061 752 734, +387 61 752 734",
    "Average Rating": "5",
    "Latitude": "44.8186965",
    "Longitude": "15.8647627",
    "Website": "https://linktr.ee/stomatologija.edental"
  },
  {
    "Name": "Hidžama Bihać / Cupping therapy",
    "Fulladdress": "Ivana Franje Jukića 60, Bihać 77000",
    "Municipality": "Bihać 77000",
    "Categories": "Medicinska ordinacija,Liječnik alternativne medicine",
    "Phones": "062 542 326, +387 62 542 326",
    "Average Rating": "5",
    "Latitude": "44.808458",
    "Longitude": "15.842225",
    "Website": "https://instagram.com/hidzamabihac?igshid=Yzg5MTU1MDY="
  },
  {
    "Name": "BioLab",
    "Fulladdress": "Trg Zlatnih Ljiljana 547, Cazin",
    "Municipality": "Cazin",
    "Categories": "Medicinski laboratorij",
    "Phones": "037 512-000, +387 37 512-000",
    "Average Rating": "2.7",
    "Latitude": "44.9649661",
    "Longitude": "15.9374312",
    "Website": ""
  },
  {
    "Name": "Aqualab Plus 2 Laboratorija",
    "Fulladdress": "Reisa Dž. Čauševića 51b, Brčko 76100",
    "Municipality": "Brčko 76100",
    "Categories": "Biokemijski laboratorij",
    "Phones": "065 043-043, +387 65 043-043",
    "Average Rating": "4.6",
    "Latitude": "44.8777191",
    "Longitude": "18.8003897",
    "Website": "http://www.aqualab.ba/"
  },
  {
    "Name": "ExtraLab",
    "Fulladdress": "Univerzitetska 16, Tuzla Grad 75000",
    "Municipality": "Tuzla Grad 75000",
    "Categories": "Medicinski laboratorij",
    "Phones": "035 210-355, +387 35 210-355",
    "Average Rating": "4.5",
    "Latitude": "44.5385526",
    "Longitude": "18.6644433",
    "Website": ""
  },
  {
    "Name": "Plava Medical Group - Plava Poliklinika Slatina",
    "Fulladdress": "Albina I Franje Herljevića 39, Tuzla Grad 75000",
    "Municipality": "Tuzla 75000",
    "Categories": "Laboratorij",
    "Phones": "035 393-444, +387 35 393-444",
    "Average Rating": "4.6",
    "Latitude": "44.5418521",
    "Longitude": "18.6679219",
    "Website": "http://plavapoliklinika.ba/plava-lab/"
  },
  {
    "Name": "P3 Lab In V",
    "Fulladdress": "Albina I Franje Herljevića 1, Tuzla Grad 75000",
    "Municipality": "Tuzla 75000",
    "Categories": "Medicinski laboratorij",
    "Phones": "035 288-111, +387 35 288-111",
    "Average Rating": "5",
    "Latitude": "44.5404818",
    "Longitude": "18.6664031",
    "Website": ""
  },
  {
    "Name": "Zavod Nalaz",
    "Fulladdress": "Mehmedalije Maka Dizdara 35, Tuzla Grad 75000",
    "Municipality": "Tuzla 75000",
    "Categories": "Medicinski laboratorij",
    "Phones": "035 257-474, +387 35 257-474",
    "Average Rating": "4.7",
    "Latitude": "44.5316806",
    "Longitude": "18.6969344",
    "Website": "https://www.nalaz.org/"
  },
  {
    "Name": "MULTILAB : laboratorij, DDD, ZNR, PP",
    "Fulladdress": "Plane bb, Tuzla 75000",
    "Municipality": "Tuzla 75000",
    "Categories": "Laboratorij,Zaštita zdravlja i sigurnost na radu",
    "Phones": "061 713 375, +387 61 713 375",
    "Average Rating": "4.8",
    "Latitude": "44.5265647",
    "Longitude": "18.5835495",
    "Website": "http://www.multilab.ba/"
  },
  {
    "Name": "Zavod za mikrobiologiju",
    "Fulladdress": "Tuzla 75000",
    "Municipality": "",
    "Categories": "Laboratorij",
    "Phones": "035 303-517, +387 35 303-517",
    "Average Rating": "4.4",
    "Latitude": "44.5383607",
    "Longitude": "18.6922641",
    "Website": ""
  },
  {
    "Name": "Poliklinika za transfuziologiju",
    "Fulladdress": "GMQR+MP8, Put Gradina, Tuzla Grad 75000",
    "Municipality": "Put Gradina",
    "Categories": "Medicinski laboratorij,Banka krvi",
    "Phones": "035 303-523, +387 35 303-523",
    "Average Rating": "4.4",
    "Latitude": "44.5391649",
    "Longitude": "18.6918409",
    "Website": "http://www.ukctuzla.ba/"
  },
  {
    "Name": "Poliklinika Medical Irac",
    "Fulladdress": "Krečanska 17, Tuzla Grad 75000",
    "Municipality": "Tuzla Grad 75000",
    "Categories": "Laboratorij,Kardiolog,Dermatolog,Liječnik obiteljske medicine,Gastroenterolog,Liječnik opće prakse,Medicinska klinika,MRI centar,Radiolog,Reumatolog",
    "Phones": "035 366-600, +387 35 366-600",
    "Average Rating": "3.6",
    "Latitude": "44.53595",
    "Longitude": "18.654495",
    "Website": "https://poliklinika-irac.ba/"
  },
  {
    "Name": "Poliklinika Vaše zdravlje",
    "Fulladdress": "Ismeta Mujezinovića 26, Tuzla Grad 75000",
    "Municipality": "Tuzla 75000",
    "Categories": "Medicinska klinika",
    "Phones": "035 277-292, +387 35 277-292",
    "Average Rating": "4.7",
    "Latitude": "44.5319114",
    "Longitude": "18.7003474",
    "Website": "https://www.vasezdravlje.ba/"
  },
  {
    "Name": "Laboratorija za verifikaciju mjerila mase - IMBIH",
    "Fulladdress": "Armije Republike Bosne i Hercegovine 10, Tuzla Grad 75000",
    "Municipality": "Tuzla Grad 75000",
    "Categories": "Vladin ured",
    "Phones": "",
    "Average Rating": "",
    "Latitude": "44.5374132",
    "Longitude": "18.6977018",
    "Website": "http://www.met.gov.ba/"
  },
  {
    "Name": "CH Lab",
    "Fulladdress": "Izeta Sarajlića 5, Tuzla Grad 75101",
    "Municipality": "Tuzla 75101",
    "Categories": "Laboratorij",
    "Phones": "",
    "Average Rating": "5",
    "Latitude": "44.529754",
    "Longitude": "18.70947",
    "Website": "http://cloudhealthlabs.com/"
  },
  {
    "Name": "Eurofarm Centar Poliklinika - Tuzla",
    "Fulladdress": "Bulevar 2. korpusa Armije Republike Bosne i Hercegovine 82, Tuzla Grad 75000",
    "Municipality": "Tuzla 75000",
    "Categories": "Medicinska klinika",
    "Phones": "035 416-600, +387 35 416-600",
    "Average Rating": "4.4",
    "Latitude": "44.5312785",
    "Longitude": "18.6844",
    "Website": "https://eurofarmcentar.ba/"
  },
  {
    "Name": "Poliklinika Alabajči",
    "Fulladdress": "Đure Đakovića 48, Tuzla Grad 75000",
    "Municipality": "Tuzla 75000",
    "Categories": "Medicinska klinika,Veletrgovac farmaceutskim proizvodima",
    "Phones": "035 204-202, +387 35 204-202",
    "Average Rating": "4.1",
    "Latitude": "44.5282209",
    "Longitude": "18.6927561",
    "Website": "https://alabajci.ba/"
  },
  {
    "Name": "Univerzitetski klinički centar Tuzla",
    "Fulladdress": "GMPR+JXV, Ulica Profesor Doktor Ibre Pašića, Tuzla Grad 75000",
    "Municipality": "Ulica Profesor Doktor Ibre Pašića",
    "Categories": "Sveučilišna bolnica",
    "Phones": "035 303-500, +387 35 303-500",
    "Average Rating": "3.6",
    "Latitude": "44.5366041",
    "Longitude": "18.6924196",
    "Website": "http://www.ukctuzla.ba/"
  },
  {
    "Name": "Poliklinika Life'm",
    "Fulladdress": "Avenija Stupine B3, Tuzla 75000",
    "Municipality": "Tuzla Grad 75000",
    "Categories": "Medicinska klinika",
    "Phones": "035 277-666, +387 35 277-666",
    "Average Rating": "4.5",
    "Latitude": "44.5305446",
    "Longitude": "18.6893025",
    "Website": "http://poliklinikalifem.com/"
  },
  {
    "Name": "Plava Medical Group - Plava Poliklinika Simin Han",
    "Fulladdress": "3. tuzlanske brigade 7, Tuzla Grad 75000",
    "Municipality": "Tuzla Grad 75000",
    "Categories": "Medicinska klinika",
    "Phones": "035 393-111, +387 35 393-111",
    "Average Rating": "3.8",
    "Latitude": "44.5286426",
    "Longitude": "18.729836",
    "Website": "http://www.plavapoliklinika.ba/"
  },
  {
    "Name": "Plava Medical Group - Plava Bolnica Centar",
    "Fulladdress": "Mihajla i Živka Crnogorčevića do br. 10, Tuzla Grad 75000",
    "Municipality": "Tuzla Grad 75000",
    "Categories": "Klinička bolnica",
    "Phones": "035 393-333, +387 35 393-333",
    "Average Rating": "3.5",
    "Latitude": "44.5377217",
    "Longitude": "18.680301",
    "Website": "http://plavapoliklinika.ba/plava-bolnica-centar/"
  },
  {
    "Name": "Zavod za biohemiju",
    "Fulladdress": "GMPV+M53, Put Gradina, Tuzla Grad 75000",
    "Municipality": "Put Gradina",
    "Categories": "Bolnica",
    "Phones": "",
    "Average Rating": "5",
    "Latitude": "44.5366498",
    "Longitude": "18.6929077",
    "Website": ""
  },
  {
    "Name": "Master lab Tuzla",
    "Fulladdress": "GMPG+VPR, Kazan mahala, Tuzla Grad 75000",
    "Municipality": "Kazan mahala",
    "Categories": "Zubni higijeničar",
    "Phones": "051 218-545, +387 51 218-545",
    "Average Rating": "",
    "Latitude": "44.5372304",
    "Longitude": "18.676764",
    "Website": ""
  },
  {
    "Name": "Galenski laboratorij - PZU Gradske apoteke Tuzla",
    "Fulladdress": "Bajrma Malkočevića bb, Tuzla 75000",
    "Municipality": "Tuzla 75000",
    "Categories": "Farmaceutski laboratorij",
    "Phones": "035 266-185, +387 35 266-185",
    "Average Rating": "",
    "Latitude": "44.5352305",
    "Longitude": "18.7001979",
    "Website": "https://apoteke-tuzla.ba/"
  },
  {
    "Name": "Prolab Zenica",
    "Fulladdress": "Štrosmajerova 11, Zenica 72000",
    "Municipality": "Zenica 72000",
    "Categories": "Medicinski laboratorij",
    "Phones": "032 463-222, +387 32 463-222",
    "Average Rating": "4.6",
    "Latitude": "44.1949062",
    "Longitude": "17.9083369",
    "Website": "http://www.prolab.ba/"
  },
  {
    "Name": "MI LAB",
    "Fulladdress": "Reisa Čauševića 14, Zenica 72000",
    "Municipality": "Zenica 72000",
    "Categories": "Zubni laboratorij",
    "Phones": "032 223-139, +387 32 223-139",
    "Average Rating": "5",
    "Latitude": "44.1946303",
    "Longitude": "17.9146886",
    "Website": "http://www.mi-lab.ba/usluge%20doktori.html"
  },
  {
    "Name": "Kantonalna bolnica Zenica",
    "Fulladdress": "Crkvice 67, Zenica 72000",
    "Municipality": "Zenica 72000",
    "Categories": "Bolnica",
    "Phones": "032 447-000, +387 32 447-000",
    "Average Rating": "3.6",
    "Latitude": "44.2097272",
    "Longitude": "17.92636",
    "Website": "http://www.kbze.ba/"
  },
  {
    "Name": "Galenski laboratorij",
    "Fulladdress": "6W2C+HWQ, Crkvice, Zenica 72000",
    "Municipality": "Crkvice",
    "Categories": "Farmaceutska tvrtka",
    "Phones": "032 227-717, +387 32 227-717",
    "Average Rating": "5",
    "Latitude": "44.201466",
    "Longitude": "17.9223679",
    "Website": "http://www.apoteka-zdravlje.ba/"
  },
  {
    "Name": "Poliklinika SUNCE sa dnevnom bolnicom Zenica",
    "Fulladdress": "Štrosmajerova 11, Zenica 72000",
    "Municipality": "Zenica 72000",
    "Categories": "Laboratorij,Kardiolog,Internist,Privatna bolnica,Neurolog,Neurokirurg,Kirurg ortoped,Pedijatar,Radiolog,Kirurg",
    "Phones": "032 442-560, +387 32 442-560",
    "Average Rating": "3.8",
    "Latitude": "44.1949062",
    "Longitude": "17.9083369",
    "Website": "https://www.poliklinikasunce.com/"
  },
  {
    "Name": "Institut za zdravlje i sigurnost hrane - Služba za mikrobiologiju hrane",
    "Fulladdress": "Sarajevska 77b, Zenica, Federacija Bosne i Hercegovine, Sarajevska 77, Zenica 72000",
    "Municipality": "Sarajevska 77",
    "Categories": "Medicinski laboratorij",
    "Phones": "032 200-910, +387 32 200-910",
    "Average Rating": "",
    "Latitude": "44.194588",
    "Longitude": "17.9145766",
    "Website": "http://inz.ba/"
  },
  {
    "Name": "Poliklinika Medicom",
    "Fulladdress": "Sarajevska 20, Zenica 72000",
    "Municipality": "Zenica 72000",
    "Categories": "Medicinska klinika",
    "Phones": "032 462-245, +387 32 462-245",
    "Average Rating": "3.6",
    "Latitude": "44.1964002",
    "Longitude": "17.9077326",
    "Website": "http://www.medicom.ba/"
  },
  {
    "Name": "LIND",
    "Fulladdress": "6V6X+8WV, Zenica 72000",
    "Municipality": "Zenica 72000",
    "Categories": "Laboratorij",
    "Phones": "032 445-631, +387 32 445-631",
    "Average Rating": "",
    "Latitude": "44.2108608",
    "Longitude": "17.8998023",
    "Website": "http://www.zeda.ba/service/lind/"
  },
  {
    "Name": "SKY Medical Lab Laboratorije",
    "Fulladdress": "Oslobođenja bb, Živinice 75270",
    "Municipality": "Živinice 75270",
    "Categories": "Medicinski laboratorij",
    "Phones": "061 079 811, +387 61 079 811",
    "Average Rating": "5",
    "Latitude": "44.4502307",
    "Longitude": "18.6518111",
    "Website": "http://skymedical.ba/"
  },
  {
    "Name": "Labextra Živinice-Privatni medicinsko-biohemijski laboratorij",
    "Fulladdress": "Magistralni put bb, Živinice 75270",
    "Municipality": "Živinice 75270",
    "Categories": "Medicinski laboratorij",
    "Phones": "",
    "Average Rating": "4.5",
    "Latitude": "44.4547317",
    "Longitude": "18.6492333",
    "Website": ""
  },
  {
    "Name": "Labaratorija Interlab",
    "Fulladdress": "FJ4V+7PV, Druga ul., Živinice 75270",
    "Municipality": "Druga ul.",
    "Categories": "Medicinski laboratorij",
    "Phones": "061 320 800, +387 61 320 800",
    "Average Rating": "5",
    "Latitude": "44.4557431",
    "Longitude": "18.6443097",
    "Website": "https://m.facebook.com/InterLabZivinice/"
  },
  {
    "Name": "Stomatološka Ordinacija \"\"House of Smile\"\"",
    "Fulladdress": "Sarajevska 5, Lukavac 75300",
    "Municipality": "Lukavac 75300",
    "Categories": "Zubar",
    "Phones": "062 997 839, +387 62 997 839",
    "Average Rating": "5",
    "Latitude": "44.536117",
    "Longitude": "18.5294829",
    "Website": ""
  },
  {
    "Name": "Stomatološka Ordinacija Imamović Izudin",
    "Fulladdress": "GGPM+V9Q, Muhameda Hevaija Uskufija, Lukavac",
    "Municipality": "Muhameda Hevaija Uskufija",
    "Categories": "Stomatološka klinika",
    "Phones": "035 556-677, +387 35 556-677",
    "Average Rating": "5",
    "Latitude": "44.5372064",
    "Longitude": "18.5334903",
    "Website": ""
  },
  {
    "Name": "K Dental Centar",
    "Fulladdress": "Luciana 5, Ulaz F2, Armije Republike Bosne i Hercegovine, Lukavac 75300",
    "Municipality": "Armije Republike Bosne i Hercegovine",
    "Categories": "Stomatološka klinika",
    "Phones": "035 412-873, +387 35 412-873",
    "Average Rating": "4.8",
    "Latitude": "44.5287178",
    "Longitude": "18.5368784",
    "Website": ""
  },
  {
    "Name": "Stomatoloska ordinacija MedicaDent Blekovic",
    "Fulladdress": "Branilaca Bosne, Lukavac 75300",
    "Municipality": "Lukavac 75300",
    "Categories": "Zubar",
    "Phones": "061 315 399, +387 61 315 399",
    "Average Rating": "5",
    "Latitude": "44.5294848",
    "Longitude": "18.5380199",
    "Website": "http://www.medicadentblekovic.com/"
  },
  {
    "Name": "Dr. Karić Alija",
    "Fulladdress": "GGJP+JM2, Branilaca Bosne, Lukavac 75300",
    "Municipality": "Branilaca Bosne",
    "Categories": "Zubar",
    "Phones": "035 553-314, +387 35 553-314",
    "Average Rating": "5",
    "Latitude": "44.5315061",
    "Longitude": "18.5366423",
    "Website": ""
  },
  {
    "Name": "Specijalistička pulmološka ordinacija \"\"Dr.Memić\"\"",
    "Fulladdress": "Kulina bana b.b, Lukavac 75300",
    "Municipality": "Lukavac 75300",
    "Categories": "Liječnik",
    "Phones": "061 710 608, +387 61 710 608",
    "Average Rating": "5",
    "Latitude": "44.535599",
    "Longitude": "18.5271241",
    "Website": "https://www.facebook.com/drfuadmemic/"
  },
  {
    "Name": "Muminović Dentistry",
    "Fulladdress": "Titova b.b, Lukavac 75300",
    "Municipality": "Lukavac 75300",
    "Categories": "Stomatološka klinika",
    "Phones": "035 413-795, +387 35 413-795",
    "Average Rating": "5",
    "Latitude": "44.5279841",
    "Longitude": "18.5367133",
    "Website": ""
  },
  {
    "Name": "Stomatolog Mujagić Mehmedalija",
    "Fulladdress": "GGQH+RCH, Muhameda Hevaija Uskufija, Lukavac",
    "Municipality": "Muhameda Hevaija Uskufija",
    "Categories": "Bolnica",
    "Phones": "",
    "Average Rating": "5",
    "Latitude": "44.5395594",
    "Longitude": "18.5286117",
    "Website": ""
  },
  {
    "Name": "Poliklinika Osteomedic",
    "Fulladdress": "Lukavačkih brigada bb, Lukavac 75300",
    "Municipality": "Lukavac 75300",
    "Categories": "Kiropraktičar,Dermatolog,Ginekolog,Internist,Neurokirurg,Kirurg ortoped,Pedijatar,Fizijatar,Fizioterapeut,Urolog",
    "Phones": "035 413-248, +387 35 413-248",
    "Average Rating": "4.6",
    "Latitude": "44.5303711",
    "Longitude": "18.5301792",
    "Website": "http://www.osteomedic.ba/"
  },
  {
    "Name": "Ginekološka ordinacija Dzibric",
    "Fulladdress": "GGJP+9QH, Branilaca Bosne, Lukavac",
    "Municipality": "Branilaca Bosne",
    "Categories": "Ginekolog",
    "Phones": "061 729 428, +387 61 729 428",
    "Average Rating": "1",
    "Latitude": "44.5309451",
    "Longitude": "18.5369731",
    "Website": ""
  },
  {
    "Name": "Logopedska ordinacija Logos",
    "Fulladdress": "Derviša Sušića bb, Lukavac 75300",
    "Municipality": "Lukavac 75300",
    "Categories": "Logoped",
    "Phones": "",
    "Average Rating": "",
    "Latitude": "44.5314211",
    "Longitude": "18.5367299",
    "Website": "https://www.facebook.com/profile.php?id=100090517593415&mibextid=ZbWKwL"
  },
  {
    "Name": "Logopedska ordinacija Rikert",
    "Fulladdress": "GGHQ+R5, Armije RBiH D6, Lukavac 75300",
    "Municipality": "Armije RBiH D6",
    "Categories": "Logoped",
    "Phones": "061 888 677, +387 61 888 677",
    "Average Rating": "",
    "Latitude": "44.5297542",
    "Longitude": "18.5365754",
    "Website": ""
  },
  {
    "Name": "Poliklinika EsoLab",
    "Fulladdress": "75300, Lukavac 75300",
    "Municipality": "Lukavac 75300",
    "Categories": "Medicinska klinika",
    "Phones": "035 414-548, +387 35 414-548",
    "Average Rating": "4.8",
    "Latitude": "44.5366014",
    "Longitude": "18.5263682",
    "Website": "https://www.esolab.ba/index.php/pocetna"
  },
  {
    "Name": "Stomatološka Ordinacija ,,Obralić\"\"",
    "Fulladdress": "Maglaj",
    "Municipality": "",
    "Categories": "Liječnik",
    "Phones": "061 417 272, +387 61 417 272",
    "Average Rating": "4.1",
    "Latitude": "44.5475734",
    "Longitude": "18.0991255",
    "Website": ""
  },
  {
    "Name": "Stomatološka ordinacija \"\"Dr. Nadira Mulahasanović\"\"",
    "Fulladdress": "G4X2+XM3, Ivana Pavla II, Maglaj",
    "Municipality": "Ivana Pavla II",
    "Categories": "Liječnik",
    "Phones": "061 412 626, +387 61 412 626",
    "Average Rating": "5",
    "Latitude": "44.5498879",
    "Longitude": "18.1016839",
    "Website": ""
  },
  {
    "Name": "Stomatoloska Ordinacija Dr.Imamovic",
    "Fulladdress": "G4X2+734, Viteška bb, Maglaj",
    "Municipality": "Viteška bb",
    "Categories": "Hitna stomatološka služba",
    "Phones": "060 33 97 564, +387 60 33 97 564",
    "Average Rating": "5",
    "Latitude": "44.5477568",
    "Longitude": "18.0997473",
    "Website": ""
  },
  {
    "Name": "Dr Armin",
    "Fulladdress": "G4X2+88P, Titova, Maglaj 74250",
    "Municipality": "Titova",
    "Categories": "Zubar",
    "Phones": "",
    "Average Rating": "5",
    "Latitude": "44.548342",
    "Longitude": "18.1008265",
    "Website": ""
  },
  {
    "Name": "Dr. Samija",
    "Fulladdress": "G4X2+WGJ, Maglaj",
    "Municipality": "Maglaj",
    "Categories": "Pedijatar",
    "Phones": "032 606-711, +387 32 606-711",
    "Average Rating": "4.3",
    "Latitude": "44.5498432",
    "Longitude": "18.101261",
    "Website": ""
  },
  {
    "Name": "TiM Smile",
    "Fulladdress": "V3J7+3X5, Kreševo",
    "Municipality": "Kreševo",
    "Categories": "Stomatološka klinika",
    "Phones": "063 837 123, +387 63 837 123",
    "Average Rating": "4.8",
    "Latitude": "43.880233",
    "Longitude": "18.065707",
    "Website": ""
  },
  {
    "Name": "PHYSIOTIME Ordinacija Za Fizikalnu Terapiju",
    "Fulladdress": "Bosanska 84, Fojnica 71270",
    "Municipality": "Fojnica 71270",
    "Categories": "Klinika za fizikalnu terapiju",
    "Phones": "060 31 17 378, +387 60 31 17 378",
    "Average Rating": "5",
    "Latitude": "43.9623413",
    "Longitude": "17.899626",
    "Website": "https://physiotimefojnica.com/"
  },
  {
    "Name": "Stomatološja ordinacija \"\"Dr. Anida\"\"",
    "Fulladdress": "Kulina bana 46, Jajce 70101",
    "Municipality": "Jajce 70101",
    "Categories": "Stomatološka klinika",
    "Phones": "062 909 686, +387 62 909 686",
    "Average Rating": "5",
    "Latitude": "44.3426505",
    "Longitude": "17.2667388",
    "Website": ""
  },
  {
    "Name": "Opća bolnica Jajce",
    "Fulladdress": "Dr. Ismeta Šehalića, Jajce 70101",
    "Municipality": "Jajce 70101",
    "Categories": "Bolnica",
    "Phones": "030 658-107, +387 30 658-107",
    "Average Rating": "4",
    "Latitude": "44.3452782",
    "Longitude": "17.2715631",
    "Website": "https://bolnicajajce.ba/"
  },
  {
    "Name": "Dental Centar PRUDENT",
    "Fulladdress": "87R8+78G, Mitrasova, Jajce 70101",
    "Municipality": "Mitrasova",
    "Categories": "Zubar",
    "Phones": "063 205 033, +387 63 205 033",
    "Average Rating": "5",
    "Latitude": "44.3405912",
    "Longitude": "17.2658298",
    "Website": "http://prudent.ba/"
  },
  {
    "Name": "Veterinarska stanica Jajce",
    "Fulladdress": "Muje Bačvića bb, Jajce 70101",
    "Municipality": "Jajce 70101",
    "Categories": "Veterinar",
    "Phones": "061 765 250, +387 61 765 250",
    "Average Rating": "",
    "Latitude": "44.3445359",
    "Longitude": "17.2784871",
    "Website": ""
  },
  {
    "Name": "Hitna pomoć",
    "Fulladdress": "87VC+544, Jajce 70101",
    "Municipality": "Jajce 70101",
    "Categories": "Hitna služba",
    "Phones": "030 657-996, +387 30 657-996",
    "Average Rating": "4.4",
    "Latitude": "44.342898",
    "Longitude": "17.2703174",
    "Website": ""
  },
  {
    "Name": "Dental office NerDent",
    "Fulladdress": "Dr. Ismeta Šehalića 58, Jajce 70101",
    "Municipality": "Jajce 70101",
    "Categories": "Zubar",
    "Phones": "063 354 660, +387 63 354 660",
    "Average Rating": "4.6",
    "Latitude": "44.3459815",
    "Longitude": "17.2738857",
    "Website": "http://www.nerdent.ba/"
  },
  {
    "Name": "Zubna ordinacija dr. Mašetić",
    "Fulladdress": "WHRM+CHF, Džemala Bijedića, Gornji Vakuf-Uskoplje",
    "Municipality": "Džemala Bijedića",
    "Categories": "Zubar",
    "Phones": "030 265-075, +387 30 265-075",
    "Average Rating": "5",
    "Latitude": "43.9410606",
    "Longitude": "17.5839157",
    "Website": ""
  },
  {
    "Name": "Stomatološka ordinacija DentIN",
    "Fulladdress": "70240, Gornji Vakuf-Uskoplje 70240",
    "Municipality": "Gornji Vakuf-Uskoplje 70240",
    "Categories": "Zubar,Stomatološka klinika",
    "Phones": "061 593 112, +387 61 593 112",
    "Average Rating": "4.9",
    "Latitude": "43.9387352",
    "Longitude": "17.5855192",
    "Website": ""
  },
  {
    "Name": "Dental studio Rivadent",
    "Fulladdress": "Vrbaska, Gornji Vakuf-Uskoplje",
    "Municipality": "Gornji Vakuf-Uskoplje",
    "Categories": "Zubar",
    "Phones": "062 001 023 ext. 063550560, +387 62 001 023 ext. 063550560",
    "Average Rating": "4.5",
    "Latitude": "43.9389801",
    "Longitude": "17.5862159",
    "Website": "http://rivadent.ba/"
  },
  {
    "Name": "Stomatološka ordinacija AL-DA DENT",
    "Fulladdress": "Gradska b.b, Gornji Vakuf-Uskoplje 70240",
    "Municipality": "Gornji Vakuf-Uskoplje 70240",
    "Categories": "Stomatološka klinika",
    "Phones": "062 308 450, +387 62 308 450",
    "Average Rating": "",
    "Latitude": "43.935548",
    "Longitude": "17.5921204",
    "Website": ""
  },
  {
    "Name": "Stomatološka ordinacija Dr. Rijad Duraković",
    "Fulladdress": "49VV+QW4, Donji Vakuf",
    "Municipality": "Donji Vakuf",
    "Categories": "Stomatološka klinika",
    "Phones": "062 156 425, +387 62 156 425",
    "Average Rating": "5",
    "Latitude": "44.1443878",
    "Longitude": "17.394826",
    "Website": "https://www.facebook.com/people/Stomatolo%C5%A1ka-ordinacija-Dr-Rijad-Durakovi%C4%87/100078945313361/?paipv=0&eav=AfYDyvHPNcItHhdIgvV3b5sUqAc1bZ6QV6ypZbINghh9glFJlYxrnlLS-aDBxRiQN0U&_rdr"
  },
  {
    "Name": "Stomatološka ordinacija MIDENT",
    "Fulladdress": "Jaz bb, Donji Vakuf 70220",
    "Municipality": "Donji Vakuf 70220",
    "Categories": "Stomatološka klinika",
    "Phones": "061 105 911, +387 61 105 911",
    "Average Rating": "1",
    "Latitude": "44.1444935",
    "Longitude": "17.3968894",
    "Website": ""
  },
  {
    "Name": "Poliklinika Musa",
    "Fulladdress": "Kralja Tomislava 22, Mostar 88000",
    "Municipality": "Mostar 88000",
    "Categories": "Stomatološka klinika,Parodontolog specijaliziran za zubne implantate,Zubar,Ortodont,Parodontolog",
    "Phones": "036 332-841, +387 36 332-841",
    "Average Rating": "4.3",
    "Latitude": "43.3516911",
    "Longitude": "17.8017428",
    "Website": ""
  },
  {
    "Name": "Stomatološka poliklinika Jurišić",
    "Fulladdress": "Kneza Branimira 11, Mostar 88000",
    "Municipality": "Mostar 88000",
    "Categories": "Stomatološka klinika",
    "Phones": "036 325-588, +387 36 325-588",
    "Average Rating": "4.3",
    "Latitude": "43.3404816",
    "Longitude": "17.8003224",
    "Website": "https://poliklinikajurisic.com/"
  },
  {
    "Name": "Stomatološka Poliklinika Pinjić",
    "Fulladdress": "Kardinala Stepinca 12, Mostar 88000",
    "Municipality": "Mostar 88000",
    "Categories": "Stomatološka klinika",
    "Phones": "036 313-600, +387 36 313-600",
    "Average Rating": "4.6",
    "Latitude": "43.3485767",
    "Longitude": "17.8099759",
    "Website": ""
  },
  {
    "Name": "Zubarska ordinacija Irma Karadža Duraković",
    "Fulladdress": "Adema Buća bb, Mostar 88000",
    "Municipality": "Mostar 88000",
    "Categories": "Zubar",
    "Phones": "061 056 410, +387 61 056 410",
    "Average Rating": "4.8",
    "Latitude": "43.341834",
    "Longitude": "17.8101682",
    "Website": ""
  },
  {
    "Name": "Stomatološka ordinacija Dr. Alija Mahinić",
    "Fulladdress": "Maršala Tita 48, Mostar 88000",
    "Municipality": "Mostar 88000",
    "Categories": "Bolnica",
    "Phones": "036 551-791, +387 36 551-791",
    "Average Rating": "5",
    "Latitude": "43.3458624",
    "Longitude": "17.8132289",
    "Website": ""
  },
  {
    "Name": "Stomatološka ordinacija Tomić",
    "Fulladdress": "Dubrovačka 134A, Mostar 88000",
    "Municipality": "Mostar 88000",
    "Categories": "Stomatološka klinika",
    "Phones": "036 319-900, +387 36 319-900",
    "Average Rating": "4.9",
    "Latitude": "43.3512751",
    "Longitude": "17.7950517",
    "Website": "https://ordinacijatomic.com/"
  },
  {
    "Name": "Stomatoloska ordinacija M&K",
    "Fulladdress": "Dr. Ante Starčevića 78, Mostar 88000",
    "Municipality": "Mostar 88000",
    "Categories": "Stomatološka klinika",
    "Phones": "036 347-546, +387 36 347-546",
    "Average Rating": "4.3",
    "Latitude": "43.3538967",
    "Longitude": "17.8033317",
    "Website": ""
  },
  {
    "Name": "Poliklinika Arbor Vitae Dr. Sarić",
    "Fulladdress": "Maršala Tita, Mostar 88000",
    "Municipality": "Mostar 88000",
    "Categories": "Medicinska klinika,Klinika za plodnost,Ginekolog,Internist,Medicinski laboratorij,Psiholog",
    "Phones": "036 555-995, +387 36 555-995",
    "Average Rating": "4.9",
    "Latitude": "43.3501051",
    "Longitude": "17.8124703",
    "Website": "http://www.poliklinika-saric.com/"
  },
  {
    "Name": "Stomatološka Ordinacija \"\"Dr Čekro\"\"",
    "Fulladdress": "Šerifa Burića, Mostar 88000",
    "Municipality": "Mostar 88000",
    "Categories": "Stomatološka klinika",
    "Phones": "036 551-120, +387 36 551-120",
    "Average Rating": "5",
    "Latitude": "43.3403854",
    "Longitude": "17.8143629",
    "Website": "http://www.drcekro.ba/"
  },
  {
    "Name": "Privatna stomatoloska ordinacija Dr. Mario Simovic",
    "Fulladdress": "9Q2R+GXW, Mostar 88000",
    "Municipality": "Mostar 88000",
    "Categories": "Stomatološka klinika",
    "Phones": "061 869 216, +387 61 869 216",
    "Average Rating": "5",
    "Latitude": "43.3513706",
    "Longitude": "17.7924547",
    "Website": ""
  },
  {
    "Name": "Stomatološka poliklinika Jurišić - ordinacija Smrčenjaci",
    "Fulladdress": "III cimske bojne, Mostar 88000",
    "Municipality": "Mostar 88000",
    "Categories": "Stomatološka klinika",
    "Phones": "063 299 102, +387 63 299 102",
    "Average Rating": "5",
    "Latitude": "43.347191",
    "Longitude": "17.7876283",
    "Website": "https://www.poliklinikajurisic.com/"
  },
  {
    "Name": "Dr Mladen Ćubela",
    "Fulladdress": "8RQ3+VV3, Kneza Mihajla Viševića Humskog, Mostar 88000",
    "Municipality": "Kneza Mihajla Viševića Humskog",
    "Categories": "Stomatološka klinika",
    "Phones": "036 328-870, +387 36 328-870",
    "Average Rating": "4.8",
    "Latitude": "43.3396415",
    "Longitude": "17.8046722",
    "Website": ""
  },
  {
    "Name": "Stomatološka ordinacija Dr. Ružica Šunjić",
    "Fulladdress": "SPC Rondo, Kralja Petra Krešimira IV bb, Mostar 88000",
    "Municipality": "Kralja Petra Krešimira IV bb",
    "Categories": "Stomatološka klinika",
    "Phones": "036 312-355, +387 36 312-355",
    "Average Rating": "5",
    "Latitude": "43.3419838",
    "Longitude": "17.8008421",
    "Website": ""
  },
  {
    "Name": "Stomatološka ordinacija Smile Design dr.Emina Bešić-Šehić",
    "Fulladdress": "Mladena Balorde 17, Mostar 88000",
    "Municipality": "Mostar 88000",
    "Categories": "Kozmetički stomatolog",
    "Phones": "061 606 439, +387 61 606 439",
    "Average Rating": "5",
    "Latitude": "43.3450305",
    "Longitude": "17.8122752",
    "Website": ""
  },
  {
    "Name": "Ordinacija",
    "Fulladdress": "Sv. Leopolda Bogdana Mandića 1, Mostar 88000",
    "Municipality": "Mostar 88000",
    "Categories": "Ginekolog",
    "Phones": "",
    "Average Rating": "5",
    "Latitude": "43.3496296",
    "Longitude": "17.7960908",
    "Website": ""
  },
  {
    "Name": "Stomatološka ordinacija 2A DENT",
    "Fulladdress": "Trg Ivana Krndelja, Mostar 88000",
    "Municipality": "Mostar 88000",
    "Categories": "Stomatološka klinika",
    "Phones": "061 759 884, +387 61 759 884",
    "Average Rating": "5",
    "Latitude": "43.3494671",
    "Longitude": "17.8123588",
    "Website": ""
  },
  {
    "Name": "Stomatološka ordinacija \"\"Dr. Gordana Maslać\"\"",
    "Fulladdress": "Bleiburških žrtava 19b, Mostar 88000",
    "Municipality": "Mostar 88000",
    "Categories": "Zubar",
    "Phones": "036 347-083, +387 36 347-083",
    "Average Rating": "4.6",
    "Latitude": "43.353442",
    "Longitude": "17.7970446",
    "Website": "https://www.facebook.com/Stomatolo%C5%A1ka-ordinacija-Dr-Gordana-Masla%C4%87-332961194206100/?modal=admin_todo_tour"
  },
  {
    "Name": "Stomatološka ordinacija Popovac",
    "Fulladdress": "K.M.V. Humskog 33, Mostar 88000",
    "Municipality": "Mostar 88000",
    "Categories": "Stomatološka klinika",
    "Phones": "036 332-594, +387 36 332-594",
    "Average Rating": "3.6",
    "Latitude": "43.3403219",
    "Longitude": "17.8062296",
    "Website": "https://www.facebook.com/StomatoloskaOrdinacijaDrDraganPopovacMostar/"
  },
  {
    "Name": "Poliklinika Vitalis",
    "Fulladdress": "9Q2X+75Q, Vukovarska bb, Mostar 88000",
    "Municipality": "Vukovarska bb",
    "Categories": "Medicinska klinika",
    "Phones": "036 310-210, +387 36 310-210",
    "Average Rating": "4.1",
    "Latitude": "43.3507805",
    "Longitude": "17.7979052",
    "Website": "https://www.poliklinikavitalis.com/"
  },
  {
    "Name": "Dr. Boloban Internističko-Kardiološka Ordinacija",
    "Fulladdress": "Dolina Sunca, Mostar 88000",
    "Municipality": "Mostar 88000",
    "Categories": "Kardiolog",
    "Phones": "060 30 16 972, +387 60 30 16 972",
    "Average Rating": "5",
    "Latitude": "43.3226489",
    "Longitude": "17.8254083",
    "Website": "https://drboloban.ba/"
  },
  {
    "Name": "Stomatoloska ordinacija dr Setka Edin",
    "Fulladdress": "Dolina sunca, Maršala Tita, Mostar 88000",
    "Municipality": "Maršala Tita",
    "Categories": "Stomatološka klinika",
    "Phones": "062 345 504, +387 62 345 504",
    "Average Rating": "3.4",
    "Latitude": "43.3243131",
    "Longitude": "17.824399",
    "Website": ""
  },
  {
    "Name": "Poliklinika Mak",
    "Fulladdress": "8QQX+47V, Fra Didaka Buntića, Mostar 88000",
    "Municipality": "Fra Didaka Buntića",
    "Categories": "Bolnica",
    "Phones": "036 320-668, +387 36 320-668",
    "Average Rating": "5",
    "Latitude": "43.3378615",
    "Longitude": "17.7981627",
    "Website": "https://m.facebook.com/PoliklinikaMak/"
  },
  {
    "Name": "Privatna ordinacija Fazlibegovic",
    "Fulladdress": "8RQ3+24M, Mostar 88000",
    "Municipality": "Mostar 88000",
    "Categories": "Privatna bolnica",
    "Phones": "036 318-857, +387 36 318-857",
    "Average Rating": "5",
    "Latitude": "43.3375919",
    "Longitude": "17.8027908",
    "Website": ""
  },
  {
    "Name": "Ginekološka ordinacija Prim.Mr.Sci.Dr Alma Vila Humačkić",
    "Fulladdress": "Fra Didaka Buntića 122, Mostar 88000",
    "Municipality": "Mostar 88000",
    "Categories": "Ginekolog",
    "Phones": "062 265 165, +387 62 265 165",
    "Average Rating": "4.7",
    "Latitude": "43.3378696",
    "Longitude": "17.7999278",
    "Website": ""
  },
  {
    "Name": "Poliklinika H",
    "Fulladdress": "Kraljice Katarine 45, Mostar 88000",
    "Municipality": "Mostar 88000",
    "Categories": "Medicinska klinika",
    "Phones": "036 333-174, +387 36 333-174",
    "Average Rating": "4.1",
    "Latitude": "43.3385529",
    "Longitude": "17.8024151",
    "Website": "https://www.poliklinikah.ba/"
  },
  {
    "Name": "Sveučilišna klinička bolnica Mostar",
    "Fulladdress": "Mostar 88000",
    "Municipality": "",
    "Categories": "Sveučilišna bolnica,Bolnica",
    "Phones": "036 336-000, +387 36 336-000",
    "Average Rating": "4.1",
    "Latitude": "43.3447919",
    "Longitude": "17.7903863",
    "Website": "http://www.skbm.ba/"
  },
  {
    "Name": "SKB Mostar, Klinika za unutarnje bolesti",
    "Fulladdress": "8QWR+2F7, Mostar 88000",
    "Municipality": "Mostar 88000",
    "Categories": "Bolnički odjel",
    "Phones": "",
    "Average Rating": "4.7",
    "Latitude": "43.3450395",
    "Longitude": "17.79116",
    "Website": ""
  },
  {
    "Name": "3DENT",
    "Fulladdress": "Kralja Zvonimira 16b, Mostar 88000",
    "Municipality": "Mostar 88000",
    "Categories": "Rendgenski laboratorij,Radiolog",
    "Phones": "036 348-807, +387 36 348-807",
    "Average Rating": "5",
    "Latitude": "43.3449227",
    "Longitude": "17.8020139",
    "Website": "http://www.3dent.ba/"
  },
  {
    "Name": "GINEKOLOŠ KA ORDINACIJA MR.DR. FADILA BIJEDIĆ",
    "Fulladdress": "Fra Didaka Buntića 122, Mostar 88000",
    "Municipality": "Mostar 88000",
    "Categories": "Ginekolog",
    "Phones": "062 265 165, +387 62 265 165",
    "Average Rating": "5",
    "Latitude": "43.3378696",
    "Longitude": "17.7999278",
    "Website": ""
  },
  {
    "Name": "Poliklinika Ćurković",
    "Fulladdress": "Zagrebačka 38, Mostar 88000",
    "Municipality": "Mostar 88000",
    "Categories": "Oftalmolog",
    "Phones": "",
    "Average Rating": "4",
    "Latitude": "43.3408029",
    "Longitude": "17.7988306",
    "Website": ""
  },
  {
    "Name": "The Lab Mostar",
    "Fulladdress": "Alekse Šantića 97, Mostar 88000",
    "Municipality": "Mostar 88000",
    "Categories": "Medicinski laboratorij",
    "Phones": "036 397-156, +387 36 397-156",
    "Average Rating": "4.7",
    "Latitude": "43.350712",
    "Longitude": "17.807786",
    "Website": "http://www.biomedicalab.ba/"
  },
  {
    "Name": "Vele-lab laboratorij",
    "Fulladdress": "29. hercegovačke udarne divizije 14, Mostar 88104",
    "Municipality": "Mostar 88104",
    "Categories": "Medicinski laboratorij",
    "Phones": "036 577-542, +387 36 577-542",
    "Average Rating": "4.5",
    "Latitude": "43.346633",
    "Longitude": "17.8167631",
    "Website": "http://www.velelab.ba/"
  },
  {
    "Name": "C Lab",
    "Fulladdress": "Dr. Ante Starčevića 44, Mostar 88000",
    "Municipality": "Mostar 88000",
    "Categories": "Medicinski laboratorij",
    "Phones": "036 348-386, +387 36 348-386",
    "Average Rating": "4.6",
    "Latitude": "43.3510835",
    "Longitude": "17.8060775",
    "Website": ""
  },
  {
    "Name": "Mikrobiološki laboratorij Mostar RMC \"\"dr Safet Mujić\"\"",
    "Fulladdress": "9R46+4F6, Mostar 88000",
    "Municipality": "Mostar 88000",
    "Categories": "Služba za mentalno zdravlje",
    "Phones": "036 571-891, +387 36 571-891",
    "Average Rating": "5",
    "Latitude": "43.3552782",
    "Longitude": "17.8111453",
    "Website": ""
  },
  {
    "Name": "Stomatološka ordinacija dr. Bukvić",
    "Fulladdress": "Metkovačka, Čapljina",
    "Municipality": "Čapljina",
    "Categories": "Zubar",
    "Phones": "036 808-777, +387 36 808-777",
    "Average Rating": "5",
    "Latitude": "43.1090863",
    "Longitude": "17.7004954",
    "Website": ""
  },
  {
    "Name": "Dr. Goran Pehar",
    "Fulladdress": "4P62+X32, Mate Bobana, Čapljina 88330",
    "Municipality": "Mate Bobana",
    "Categories": "Zubar",
    "Phones": "036 808-101, +387 36 808-101",
    "Average Rating": "4.3",
    "Latitude": "43.1123972",
    "Longitude": "17.700136",
    "Website": "https://hr-hr.facebook.com/people/Goran-Pehar/100008673066289/"
  },
  {
    "Name": "Dr. Dominik Lubina",
    "Fulladdress": "Ante Starčevića 27, Čapljina 88300",
    "Municipality": "Čapljina 88300",
    "Categories": "Zubar",
    "Phones": "036 805-071, +387 36 805-071",
    "Average Rating": "4",
    "Latitude": "43.1092755",
    "Longitude": "17.703055",
    "Website": "http://dentalcentar-lubina.com/"
  },
  {
    "Name": "Knežević Dental Centar",
    "Fulladdress": "Kralja Tomislava bb, Čapljina 88300",
    "Municipality": "Čapljina 88300",
    "Categories": "Stomatološka klinika",
    "Phones": "063 336 415, +387 63 336 415",
    "Average Rating": "4.2",
    "Latitude": "43.1132814",
    "Longitude": "17.7043095",
    "Website": ""
  },
  {
    "Name": "Specijalisticka ortopedska ordinacija dr Moro",
    "Fulladdress": "Ante Starčevića 27, Čapljina",
    "Municipality": "Čapljina",
    "Categories": "Liječnik",
    "Phones": "063 654 900, +387 63 654 900",
    "Average Rating": "5",
    "Latitude": "43.1092568",
    "Longitude": "17.7017576",
    "Website": ""
  },
  {
    "Name": "Poliklinika Medicor MM",
    "Fulladdress": "Ante Starčevića, Čapljina 88300",
    "Municipality": "Čapljina 88300",
    "Categories": "Privatna bolnica",
    "Phones": "036 843-154, +387 36 843-154",
    "Average Rating": "4.4",
    "Latitude": "43.1091019",
    "Longitude": "17.7044717",
    "Website": "http://poliklinikamedicor-mm.com/"
  },
  {
    "Name": "Stomatologija Ćorić",
    "Fulladdress": "4M9V+3M, Čapljina",
    "Municipality": "Čapljina",
    "Categories": "Zubar",
    "Phones": "063 646 545, +387 63 646 545",
    "Average Rating": "5",
    "Latitude": "43.1177356",
    "Longitude": "17.6941177",
    "Website": "https://www.facebook.com/Stomatologija-%C4%86ori%C4%87-100242452529437/"
  },
  {
    "Name": "Fizioterapija Sušac",
    "Fulladdress": "Čapljina",
    "Municipality": "",
    "Categories": "Fizioterapeut",
    "Phones": "063 748 988, +387 63 748 988",
    "Average Rating": "4.8",
    "Latitude": "43.1085189",
    "Longitude": "17.7038566",
    "Website": "http://fizioterapija-susac.com/"
  },
  {
    "Name": "FizioMed Čapljina",
    "Fulladdress": "Mate Bobana 7, Čapljina 88300",
    "Municipality": "Čapljina 88300",
    "Categories": "Fizioterapeut",
    "Phones": "063 933 744, +387 63 933 744",
    "Average Rating": "5",
    "Latitude": "43.112847",
    "Longitude": "17.700556",
    "Website": "https://m.facebook.com/pages/category/Physical-Therapist/FizioMed-101528998131813/"
  },
  {
    "Name": "Obradović d.o.o.",
    "Fulladdress": "4P73+W6H, Zrinsko Frankopanska, Čapljina",
    "Municipality": "Zrinsko Frankopanska",
    "Categories": "Trgovina",
    "Phones": "036 808-542, +387 36 808-542",
    "Average Rating": "4.8",
    "Latitude": "43.1148217",
    "Longitude": "17.7031243",
    "Website": ""
  },
  {
    "Name": "Optika Šimić - Prskalo",
    "Fulladdress": "Braće Radić b.b, Čapljina 88300",
    "Municipality": "Čapljina 88300",
    "Categories": "Oftalmolog",
    "Phones": "036 806-605, +387 36 806-605",
    "Average Rating": "3.8",
    "Latitude": "43.1129709",
    "Longitude": "17.7051202",
    "Website": "https://www.optika-simic-prskalo.com/"
  },
  {
    "Name": "Stomatološka ordinacija \"\"Sarajlić\"\" - dr. Adnan Sarajlić",
    "Fulladdress": "Kolonija 20, Konjic 88400",
    "Municipality": "Konjic 88400",
    "Categories": "Stomatološka klinika",
    "Phones": "062 191 777, +387 62 191 777",
    "Average Rating": "4",
    "Latitude": "43.6551258",
    "Longitude": "17.9572543",
    "Website": ""
  },
  {
    "Name": "Stomatološka ordinacija dr Emir Duranović",
    "Fulladdress": "Maršala Tita br.49, Konjic 88400",
    "Municipality": "Konjic 88400",
    "Categories": "Stomatološka klinika",
    "Phones": "036 729-820, +387 36 729-820",
    "Average Rating": "5",
    "Latitude": "43.6535393",
    "Longitude": "17.9630451",
    "Website": ""
  },
  {
    "Name": "PZU Poliklinika Hadžihusejnović",
    "Fulladdress": "MX46+GQR, Željeznička, Konjic",
    "Municipality": "Željeznička",
    "Categories": "Bolnica",
    "Phones": "036 734-050, +387 36 734-050",
    "Average Rating": "1",
    "Latitude": "43.656368",
    "Longitude": "17.9618917",
    "Website": ""
  },
  {
    "Name": "Stomatološka Ordinacija SS Dental",
    "Fulladdress": "Konjic",
    "Municipality": "",
    "Categories": "Stomatološka klinika",
    "Phones": "036 728-099, +387 36 728-099",
    "Average Rating": "5",
    "Latitude": "43.6488201",
    "Longitude": "17.9611183",
    "Website": ""
  },
  {
    "Name": "Dr. Zumreta Nuhić",
    "Fulladdress": "Hadžizulfikara 8, Konjic",
    "Municipality": "Konjic",
    "Categories": "Zubar",
    "Phones": "036 734-430, +387 36 734-430",
    "Average Rating": "4.9",
    "Latitude": "43.6496473",
    "Longitude": "17.9619347",
    "Website": ""
  },
  {
    "Name": "Opća bolnica Konjic",
    "Fulladdress": "MX42+8W9, Bolnička, Konjic 88400",
    "Municipality": "Bolnička",
    "Categories": "Bolnica",
    "Phones": "036 712-511, +387 36 712-511",
    "Average Rating": "2.6",
    "Latitude": "43.6557792",
    "Longitude": "17.9523468",
    "Website": "http://bolnicakonjic.com/"
  },
  {
    "Name": "Privatna konoba ORDINACIJA",
    "Fulladdress": "MQ76+CH7, Rasadnik br.6, Jablanica",
    "Municipality": "Jablanica",
    "Categories": "Bar",
    "Phones": "061 760 799, +387 61 760 799",
    "Average Rating": "",
    "Latitude": "43.6635375",
    "Longitude": "17.7614219",
    "Website": ""
  },
  {
    "Name": "Stomatološka Poliklinika Dr. Omer Pinjić",
    "Fulladdress": "MQ56+GRP, Jablanica",
    "Municipality": "Jablanica",
    "Categories": "Bolnica",
    "Phones": "036 753-643, +387 36 753-643",
    "Average Rating": "5",
    "Latitude": "43.6588326",
    "Longitude": "17.7620628",
    "Website": ""
  },
  {
    "Name": "Hidžama Jablanica - Ukaša",
    "Fulladdress": "JQM4+7F2, Jablanica",
    "Municipality": "Jablanica",
    "Categories": "Liječnik alternativne medicine",
    "Phones": "062 527 630, +387 62 527 630",
    "Average Rating": "4.9",
    "Latitude": "43.633135",
    "Longitude": "17.756137",
    "Website": ""
  },
  {
    "Name": "Poliklinika Gama Medic",
    "Fulladdress": "Nikole Bojanovića bb, Jablanica 88420",
    "Municipality": "Jablanica 88420",
    "Categories": "Ginekolog",
    "Phones": "062 727 224, +387 62 727 224",
    "Average Rating": "",
    "Latitude": "43.6627927",
    "Longitude": "17.7619256",
    "Website": "https://gamamedic.ba/"
  },
  {
    "Name": "Laboratorij BiH Jablanica",
    "Fulladdress": "Branilaca grada 25, Jablanica 88420",
    "Municipality": "Jablanica 88420",
    "Categories": "Medicinski laboratorij",
    "Phones": "036 835-164, +387 36 835-164",
    "Average Rating": "",
    "Latitude": "43.6587829",
    "Longitude": "17.761504",
    "Website": "http://www.laboratorijbih.ba/"
  },
  {
    "Name": "Stomatološka ordinacija “RiaDent”",
    "Fulladdress": "Kralja Tomislava bb, Prozor 88440",
    "Municipality": "Prozor 88440",
    "Categories": "Stomatološka klinika",
    "Phones": "062 164 687, +387 62 164 687",
    "Average Rating": "5",
    "Latitude": "43.8250932",
    "Longitude": "17.6074716",
    "Website": ""
  },
  {
    "Name": "Lug",
    "Fulladdress": "",
    "Municipality": "",
    "Categories": "",
    "Phones": "",
    "Average Rating": "",
    "Latitude": "43.7907448",
    "Longitude": "17.6321721",
    "Website": ""
  },
  {
    "Name": "Veterinarska stanica SEMA-VET d.o.o",
    "Fulladdress": "Kralja Tomislava, Prozor 88440",
    "Municipality": "Prozor 88440",
    "Categories": "Veterinar",
    "Phones": "036 770-216, +387 36 770-216",
    "Average Rating": "5",
    "Latitude": "43.8184825",
    "Longitude": "17.612925",
    "Website": "https://www.facebook.com/Sema-vet-doo-1156859681188141/"
  },